Timestamp,roll,pitch,heading,rollRate,pitchRate,yawRate,groundSpeed,airSpeed,airSpeedSetpoint,climbRate,altitudeRelative,altitudeAMSL,altitudeTuning,altitudeTuningSetpoint,xTrackError,flightDistance,flightTime,distanceToHome,missionItemIndex,headingToNextWP,headingToHome,distanceToGCS,throttlePct,hobbs,apmSubInfo.cameraTilt,apmSubInfo.tetherTurns,apmSubInfo.lights1,apmSubInfo.lights2,apmSubInfo.pilotGain,apmSubInfo.inputHold,apmSubInfo.rollPitchToggle,apmSubInfo.rangefinderDistance,battery0.id,battery0.batteryFunction,battery0.batteryType,battery0.voltage,battery0.current,battery0.mahConsumed,battery0.temperature,battery0.percentRemaining,battery0.timeRemaining,battery0.timeRemainingStr,battery0.chargeState,battery0.instantPower,clock.currentTime,clock.currentDate,distanceSensor.rotationNone,distanceSensor.rotationYaw45,distanceSensor.rotationYaw90,distanceSensor.rotationYaw135,distanceSensor.rotationYaw180,distanceSensor.rotationYaw225,distanceSensor.rotationYaw270,distanceSensor.rotationYaw315,distanceSensor.rotationPitch90,distanceSensor.rotationPitch270,distanceSensor.minDistance,distanceSensor.maxDistance,escStatus.index,escStatus.rpm1,escStatus.rpm2,escStatus.rpm3,escStatus.rpm4,escStatus.current1,escStatus.current2,escStatus.current3,escStatus.current4,escStatus.voltage1,escStatus.voltage2,escStatus.voltage3,escStatus.voltage4,estimatorStatus.goodAttitudeEsimate,estimatorStatus.goodHorizVelEstimate,estimatorStatus.goodVertVelEstimate,estimatorStatus.goodHorizPosRelEstimate,estimatorStatus.goodHorizPosAbsEstimate,estimatorStatus.goodVertPosAbsEstimate,estimatorStatus.goodVertPosAGLEstimate,estimatorStatus.goodConstPosModeEstimate,estimatorStatus.goodPredHorizPosRelEstimate,estimatorStatus.goodPredHorizPosAbsEstimate,estimatorStatus.gpsGlitch,estimatorStatus.accelError,estimatorStatus.velRatio,estimatorStatus.horizPosRatio,estimatorStatus.vertPosRatio,estimatorStatus.magRatio,estimatorStatus.haglRatio,estimatorStatus.tasRatio,estimatorStatus.horizPosAccuracy,estimatorStatus.vertPosAccuracy,gps.lat,gps.lon,gps.mgrs,gps.hdop,gps.vdop,gps.courseOverGround,gps.lock,gps.count,gps2.lat,gps2.lon,gps2.mgrs,gps2.hdop,gps2.vdop,gps2.courseOverGround,gps2.lock,gps2.count,hygrometer.temperature,hygrometer.humidity,hygrometer.hygrometerid,localPosition.x,localPosition.y,localPosition.z,localPosition.vx,localPosition.vy,localPosition.vz,localPositionSetpoint.x,localPositionSetpoint.y,localPositionSetpoint.z,localPositionSetpoint.vx,localPositionSetpoint.vy,localPositionSetpoint.vz,setpoint.roll,setpoint.pitch,setpoint.yaw,setpoint.rollRate,setpoint.pitchRate,setpoint.yawRate,temperature.temperature1,temperature.temperature2,temperature.temperature3,terrain.blocksPending,terrain.blocksLoaded,vibration.xAxis,vibration.yAxis,vibration.zAxis,vibration.clipCount1,vibration.clipCount2,vibration.clipCount3,wind.direction,wind.speed,wind.verticalSpeed
23:14.5,1.2,-1.5,333,0,0,0,0,0,0,0.3,0.8,1.2,0.24,0.458,0,0,0:00:00,0.1,0,--.--,--.--,--.--,49,0000:00:00,50,0,0,0,40,0,2,--.--,0,0,0,--.--,0.54,36,--.--,99,--.--,--:--:--,0,--.--,13:23:13,8/1/2022,--.--,--.--,--.--,--.--,--.--,--.--,--.--,--.--,--.--,--.--,--.--,--.--,0,0,0,0,0,0,0,0,0,0,0,0,0,FALSE,FALSE,FALSE,FALSE,FALSE,FALSE,FALSE,FALSE,FALSE,FALSE,FALSE,FALSE,--.--,--.--,--.--,--.--,--.--,--.--,--.--,--.--,48.3887901,-124.7107009,10UCU 73353 60927,1,1,0,3,10,--.--,--.--,,--.--,--.--,--.--,0,0,--.--,--.--,0,0.5,-0.3,0.3,0.5,-0.4,-0.3,--.--,--.--,--.--,--.--,--.--,--.--,--.--,--.--,--.--,--.--,--.--,--.--,119.57,62.22,--.--,0,0,0,0,0,0,0,0,--.--,--.--,--.--
23:15.5,2.4,-0.3,333,0,0,0,0,0,0,0.1,0.8,0.4,0.22,0.467,0,0,0:00:01,0.3,0,--.--,--.--,--.--,49,0000:00:00,50,0,0,0,40,0,2,--.--,0,0,0,--.--,0.54,36,--.--,99,--.--,--:--:--,0,--.--,13:23:14,8/1/2022,--.--,--.--,--.--,--.--,--.--,--.--,--.--,--.--,--.--,--.--,--.--,--.--,0,0,0,0,0,0,0,0,0,0,0,0,0,FALSE,FALSE,FALSE,FALSE,FALSE,FALSE,FALSE,FALSE,FALSE,FALSE,FALSE,FALSE,--.--,--.--,--.--,--.--,--.--,--.--,--.--,--.--,48.3887901,-124.7107009,10UCU 73353 60927,1,1,0,3,10,--.--,--.--,,--.--,--.--,--.--,0,0,--.--,--.--,0,0.8,-0.9,-0.5,0,-0.4,-0.1,--.--,--.--,--.--,--.--,--.--,--.--,--.--,--.--,--.--,--.--,--.--,--.--,119.59,62.26,--.--,0,0,0,0,0,0,0,0,--.--,--.--,--.--
23:16.5,2,-0.1,333,0,0,0,0,0,0,0.4,0.9,0.5,0.26,0.533,0,0,0:00:01,0.6,0,--.--,--.--,--.--,49,0000:00:00,50,0,0,0,40,0,2,--.--,0,0,0,--.--,1.68,36,--.--,99,--.--,--:--:--,0,--.--,13:23:15,8/1/2022,--.--,--.--,--.--,--.--,--.--,--.--,--.--,--.--,--.--,--.--,--.--,--.--,0,0,0,0,0,0,0,0,0,0,0,0,0,FALSE,FALSE,FALSE,FALSE,FALSE,FALSE,FALSE,FALSE,FALSE,FALSE,FALSE,FALSE,--.--,--.--,--.--,--.--,--.--,--.--,--.--,--.--,48.3887901,-124.7107009,10UCU 73353 60927,1,1,0,3,10,--.--,--.--,,--.--,--.--,--.--,0,0,--.--,--.--,0,0.3,-0.7,-0.6,-0.4,-0.1,-0.4,--.--,--.--,--.--,--.--,--.--,--.--,--.--,--.--,--.--,--.--,--.--,--.--,119.61,62.26,--.--,0,0,0.2,0.2,0.3,0,0,0,--.--,--.--,--.--
23:17.5,2.5,-1.5,334,0,0,0,0,0,0,-0.2,0.6,0.3,0.2,0.396,0,0,0:00:02,0.8,0,--.--,--.--,--.--,49,0000:00:00,50,0,0,0,40,0,2,--.--,0,0,0,--.--,0.56,37,--.--,99,--.--,--:--:--,0,--.--,13:23:16,8/1/2022,--.--,--.--,--.--,--.--,--.--,--.--,--.--,--.--,--.--,--.--,--.--,--.--,0,0,0,0,0,0,0,0,0,0,0,0,0,FALSE,FALSE,FALSE,FALSE,FALSE,FALSE,FALSE,FALSE,FALSE,FALSE,FALSE,FALSE,--.--,--.--,--.--,--.--,--.--,--.--,--.--,--.--,48.3887901,-124.7107009,10UCU 73353 60927,1,1,0,3,10,--.--,--.--,,--.--,--.--,--.--,0,0,--.--,--.--,0,0.1,-0.6,-0.3,-0.3,-0.2,0.2,--.--,--.--,--.--,--.--,--.--,--.--,--.--,--.--,--.--,--.--,--.--,--.--,119.62,62.28,--.--,0,0,0,0,0,0,0,0,--.--,--.--,--.--
23:18.5,3,-1.5,334,0,0,0,0,0,0,-0.5,0,-0.3,0,0.014,0,0,0:00:03,0.7,0,--.--,--.--,--.--,0,0000:00:00,50,0,0,0,40,0,2,--.--,0,0,0,--.--,0.57,37,--.--,99,--.--,--:--:--,0,--.--,13:23:17,8/1/2022,--.--,--.--,--.--,--.--,--.--,--.--,--.--,--.--,--.--,--.--,--.--,--.--,0,0,0,0,0,0,0,0,0,0,0,0,0,FALSE,FALSE,FALSE,FALSE,FALSE,FALSE,FALSE,FALSE,FALSE,FALSE,FALSE,FALSE,--.--,--.--,--.--,--.--,--.--,--.--,--.--,--.--,48.3887901,-124.7107009,10UCU 73353 60927,1,1,0,3,10,--.--,--.--,,--.--,--.--,--.--,0,0,--.--,--.--,0,0.2,-0.5,0.2,-0.1,-0.1,0.5,--.--,--.--,--.--,--.--,--.--,--.--,--.--,--.--,--.--,--.--,--.--,--.--,119.64,62.29,--.--,0,0,0,0,0,0,0,0,--.--,--.--,--.--
23:19.5,2.8,-2.4,334,0,0,0,0,0,0,0,0.2,-0.7,0.05,0.079,0,0,0:00:00,0.1,0,--.--,--.--,--.--,49,0000:00:00,50,0,0,0,40,0,2,--.--,0,0,0,--.--,0.57,37,--.--,99,--.--,--:--:--,0,--.--,13:23:18,8/1/2022,--.--,--.--,--.--,--.--,--.--,--.--,--.--,--.--,--.--,--.--,--.--,--.--,0,0,0,0,0,0,0,0,0,0,0,0,0,FALSE,FALSE,FALSE,FALSE,FALSE,FALSE,FALSE,FALSE,FALSE,FALSE,FALSE,FALSE,--.--,--.--,--.--,--.--,--.--,--.--,--.--,--.--,48.3887901,-124.7107009,10UCU 73353 60927,1,1,0,3,10,--.--,--.--,,--.--,--.--,--.--,0,0,--.--,--.--,0,0.4,-0.5,-0.6,0.6,-0.3,0,--.--,--.--,--.--,--.--,--.--,--.--,--.--,--.--,--.--,--.--,--.--,--.--,119.66,62.29,--.--,0,0,0,0,0,0,0,0,--.--,--.--,--.--
23:20.5,1.3,1.2,333,0,0,0,0,0,0,0.5,1,0.1,0.3,0.634,0,0,0:00:00,0.3,0,--.--,--.--,--.--,49,0000:00:00,50,0,0,0,40,0,2,--.--,0,0,0,--.--,0.55,37,--.--,99,--.--,--:--:--,0,--.--,13:23:19,8/1/2022,--.--,--.--,--.--,--.--,--.--,--.--,--.--,--.--,--.--,--.--,--.--,--.--,0,0,0,0,0,0,0,0,0,0,0,0,0,FALSE,FALSE,FALSE,FALSE,FALSE,FALSE,FALSE,FALSE,FALSE,FALSE,FALSE,FALSE,--.--,--.--,--.--,--.--,--.--,--.--,--.--,--.--,48.3887901,-124.7107009,10UCU 73353 60927,1,1,0,3,10,--.--,--.--,,--.--,--.--,--.--,0,0,--.--,--.--,0,0.6,-0.7,-1.4,0.4,-0.4,-0.6,--.--,--.--,--.--,--.--,--.--,--.--,--.--,--.--,--.--,--.--,--.--,--.--,119.68,62.31,--.--,0,0,0,0,0,0,0,0,--.--,--.--,--.--
23:21.5,1.6,0.5,334,0,0,0,0,0,0,0.5,1.3,0.4,0.38,0.774,0,0,0:00:01,0.4,0,--.--,--.--,--.--,49,0000:00:00,50,0,0,0,40,0,2,--.--,0,0,0,--.--,0.53,38,--.--,99,--.--,--:--:--,0,--.--,13:23:20,8/1/2022,--.--,--.--,--.--,--.--,--.--,--.--,--.--,--.--,--.--,--.--,--.--,--.--,0,0,0,0,0,0,0,0,0,0,0,0,0,FALSE,FALSE,FALSE,FALSE,FALSE,FALSE,FALSE,FALSE,FALSE,FALSE,FALSE,FALSE,--.--,--.--,--.--,--.--,--.--,--.--,--.--,--.--,48.3887901,-124.7107009,10UCU 73353 60927,1,1,0,3,10,--.--,--.--,,--.--,--.--,--.--,0,0,--.--,--.--,0,0.2,-0.9,-1.5,-0.3,-0.6,-0.6,--.--,--.--,--.--,--.--,--.--,--.--,--.--,--.--,--.--,--.--,--.--,--.--,119.7,62.33,--.--,0,0,0.1,0.1,0,0,0,0,--.--,--.--,--.--
23:22.5,3.6,-0.4,334,0,0,0,0,0,0,-0.2,0.7,-0.3,0.19,0.444,0,0,0:00:03,0.6,0,--.--,--.--,--.--,49,0000:00:00,50,0,0,0,40,0,2,--.--,0,0,0,--.--,0.53,38,--.--,99,--.--,--:--:--,0,--.--,13:23:21,8/1/2022,--.--,--.--,--.--,--.--,--.--,--.--,--.--,--.--,--.--,--.--,--.--,--.--,0,0,0,0,0,0,0,0,0,0,0,0,0,FALSE,FALSE,FALSE,FALSE,FALSE,FALSE,FALSE,FALSE,FALSE,FALSE,FALSE,FALSE,--.--,--.--,--.--,--.--,--.--,--.--,--.--,--.--,48.3887901,-124.7107009,10UCU 73353 60927,1,1,0,3,10,--.--,--.--,,--.--,--.--,--.--,0,0,--.--,--.--,0,-0.1,-0.8,-0.8,-0.4,-0.3,0.3,--.--,--.--,--.--,--.--,--.--,--.--,--.--,--.--,--.--,--.--,--.--,--.--,119.73,62.33,--.--,0,0,0,0,0,0,0,0,--.--,--.--,--.--
23:23.5,1.9,0.6,334,0,0,0,0,0,0,-0.2,0.1,-0.8,0.02,0.069,0,0,0:00:03,0.5,0,--.--,--.--,--.--,49,0000:00:00,50,0,0,0,40,0,2,--.--,0,0,0,--.--,0.51,38,--.--,99,--.--,--:--:--,0,--.--,13:23:22,8/1/2022,--.--,--.--,--.--,--.--,--.--,--.--,--.--,--.--,--.--,--.--,--.--,--.--,0,0,0,0,0,0,0,0,0,0,0,0,0,FALSE,FALSE,FALSE,FALSE,FALSE,FALSE,FALSE,FALSE,FALSE,FALSE,FALSE,FALSE,--.--,--.--,--.--,--.--,--.--,--.--,--.--,--.--,48.3887901,-124.7107009,10UCU 73353 60927,1,1,0,3,10,--.--,--.--,,--.--,--.--,--.--,0,0,--.--,--.--,0,-0.2,-0.5,-0.4,-0.3,0,0.3,--.--,--.--,--.--,--.--,--.--,--.--,--.--,--.--,--.--,--.--,--.--,--.--,119.75,62.33,--.--,0,0,0,0,0,0,0,0,--.--,--.--,--.--
23:24.5,2.4,-1.8,334,0,0,0,0,0,0,0.1,0.6,-0.4,0.15,0.321,0,0,0:00:04,0.5,0,--.--,--.--,--.--,49,0000:00:00,50,0,0,0,40,0,2,--.--,0,0,0,--.--,0.55,38,--.--,99,--.--,--:--:--,0,--.--,13:23:23,8/1/2022,--.--,--.--,--.--,--.--,--.--,--.--,--.--,--.--,--.--,--.--,--.--,--.--,0,0,0,0,0,0,0,0,0,0,0,0,0,FALSE,FALSE,FALSE,FALSE,FALSE,FALSE,FALSE,FALSE,FALSE,FALSE,FALSE,FALSE,--.--,--.--,--.--,--.--,--.--,--.--,--.--,--.--,48.3887901,-124.7107009,10UCU 73353 60927,1,1,0,3,10,--.--,--.--,,--.--,--.--,--.--,0,0,--.--,--.--,0,-0.2,-0.5,-0.9,-0.2,-0.3,-0.1,--.--,--.--,--.--,--.--,--.--,--.--,--.--,--.--,--.--,--.--,--.--,--.--,119.77,62.33,--.--,0,0,0.4,0.6,0.4,0,0,0,--.--,--.--,--.--
23:25.5,12,-4.7,295,0,0,0,0,0,0,1.2,2.6,1.7,0.79,1.594,0,0,0:00:06,0.7,0,--.--,--.--,--.--,49,0000:00:00,50,0,0,0,40,0,2,--.--,0,0,0,--.--,0.56,38,--.--,99,--.--,--:--:--,0,--.--,13:23:24,8/1/2022,--.--,--.--,--.--,--.--,--.--,--.--,--.--,--.--,--.--,--.--,--.--,--.--,0,0,0,0,0,0,0,0,0,0,0,0,0,FALSE,FALSE,FALSE,FALSE,FALSE,FALSE,FALSE,FALSE,FALSE,FALSE,FALSE,FALSE,--.--,--.--,--.--,--.--,--.--,--.--,--.--,--.--,48.3887901,-124.7107009,10UCU 73353 60927,1,1,0,3,10,--.--,--.--,,--.--,--.--,--.--,0,0,--.--,--.--,0,0.3,-1.3,-2.9,1.1,-1.2,-1.2,--.--,--.--,--.--,--.--,--.--,--.--,--.--,--.--,--.--,--.--,--.--,--.--,119.79,62.35,--.--,0,0,0.4,0.3,0.2,0,0,0,--.--,--.--,--.--
23:26.5,3.9,-0.2,305,0,0,0,0,0,0,-1.9,-1.2,-2.1,-0.37,-0.608,0,0,0:00:06,1.4,0,--.--,--.--,--.--,49,0000:00:00,50,0,0,0,40,0,2,--.--,0,0,0,--.--,0.55,38,--.--,99,--.--,--:--:--,0,--.--,13:23:25,8/1/2022,--.--,--.--,--.--,--.--,--.--,--.--,--.--,--.--,--.--,--.--,--.--,--.--,0,0,0,0,0,0,0,0,0,0,0,0,0,FALSE,FALSE,FALSE,FALSE,FALSE,FALSE,FALSE,FALSE,FALSE,FALSE,FALSE,FALSE,--.--,--.--,--.--,--.--,--.--,--.--,--.--,--.--,48.3887901,-124.7107009,10UCU 73353 60927,1,1,0,3,10,--.--,--.--,,--.--,--.--,--.--,0,0,--.--,--.--,0,1.3,-1.6,1,1,-0.5,1.9,--.--,--.--,--.--,--.--,--.--,--.--,--.--,--.--,--.--,--.--,--.--,--.--,119.8,62.35,--.--,0,0,0.1,0.2,0.2,0,0,0,--.--,--.--,--.--
23:27.5,1.5,-1.6,311,0,0,0,0,0,0,-0.1,-0.4,-1.3,-0.13,-0.247,0,0,0:00:07,0.7,0,--.--,--.--,--.--,49,0000:00:00,50,0,0,0,40,0,2,--.--,0,0,0,--.--,0.56,38,--.--,99,--.--,--:--:--,0,--.--,13:23:26,8/1/2022,--.--,--.--,--.--,--.--,--.--,--.--,--.--,--.--,--.--,--.--,--.--,--.--,0,0,0,0,0,0,0,0,0,0,0,0,0,FALSE,FALSE,FALSE,FALSE,FALSE,FALSE,FALSE,FALSE,FALSE,FALSE,FALSE,FALSE,--.--,--.--,--.--,--.--,--.--,--.--,--.--,--.--,48.3887901,-124.7107009,10UCU 73353 60927,1,1,0,3,10,--.--,--.--,,--.--,--.--,--.--,0,0,--.--,--.--,0,0.9,-1.1,0.3,0.2,-0.4,0.1,--.--,--.--,--.--,--.--,--.--,--.--,--.--,--.--,--.--,--.--,--.--,--.--,119.84,62.37,--.--,0,0,0.2,0.4,0.5,0,0,0,--.--,--.--,--.--
23:28.5,1.9,-6.1,305,0,0,0,0,0,0,0.4,0.8,-0.1,0.25,0.527,0,0,0:00:08,0.5,0,--.--,--.--,--.--,49,0000:00:00,50,0,0,0,40,0,2,--.--,0,0,0,--.--,0.56,39,--.--,99,--.--,--:--:--,0,--.--,13:23:27,8/1/2022,--.--,--.--,--.--,--.--,--.--,--.--,--.--,--.--,--.--,--.--,--.--,--.--,0,0,0,0,0,0,0,0,0,0,0,0,0,FALSE,FALSE,FALSE,FALSE,FALSE,FALSE,FALSE,FALSE,FALSE,FALSE,FALSE,FALSE,--.--,--.--,--.--,--.--,--.--,--.--,--.--,--.--,48.3887901,-124.7107009,10UCU 73353 60927,1,1,0,3,10,--.--,--.--,,--.--,--.--,--.--,0,0,--.--,--.--,0,0.7,-1,-1.1,0.2,-0.3,-0.4,--.--,--.--,--.--,--.--,--.--,--.--,--.--,--.--,--.--,--.--,--.--,--.--,119.86,62.37,--.--,0,0,0.1,0.1,0.1,0,0,0,--.--,--.--,--.--
23:29.5,2.3,-7.6,306,0,0,0,0,0,0,0.1,0.9,0,0.26,0.527,0,0,0:00:09,0.2,0,--.--,--.--,--.--,49,0000:00:00,50,0,0,0,40,0,2,--.--,0,0,0,--.--,0.57,39,--.--,99,--.--,--:--:--,0,--.--,13:23:28,8/1/2022,--.--,--.--,--.--,--.--,--.--,--.--,--.--,--.--,--.--,--.--,--.--,--.--,0,0,0,0,0,0,0,0,0,0,0,0,0,FALSE,FALSE,FALSE,FALSE,FALSE,FALSE,FALSE,FALSE,FALSE,FALSE,FALSE,FALSE,--.--,--.--,--.--,--.--,--.--,--.--,--.--,--.--,48.3887901,-124.7107009,10UCU 73353 60927,1,1,0,3,10,--.--,--.--,,--.--,--.--,--.--,0,0,--.--,--.--,0,0.4,-0.8,-1.2,-0.1,-0.2,-0.1,--.--,--.--,--.--,--.--,--.--,--.--,--.--,--.--,--.--,--.--,--.--,--.--,119.88,62.37,--.--,0,0,0.1,0.1,0.1,0,0,0,--.--,--.--,--.--
23:30.5,2.1,-4.4,305,0,0,0,0,0,0,0.3,0.9,-0.1,0.25,0.5,0,0,0:00:10,0.2,0,--.--,--.--,--.--,49,0000:00:00,50,0,0,0,40,0,2,--.--,0,0,0,--.--,0.55,39,--.--,99,--.--,--:--:--,0,--.--,13:23:29,8/1/2022,--.--,--.--,--.--,--.--,--.--,--.--,--.--,--.--,--.--,--.--,--.--,--.--,0,0,0,0,0,0,0,0,0,0,0,0,0,FALSE,FALSE,FALSE,FALSE,FALSE,FALSE,FALSE,FALSE,FALSE,FALSE,FALSE,FALSE,--.--,--.--,--.--,--.--,--.--,--.--,--.--,--.--,48.3887901,-124.7107009,10UCU 73353 60927,1,1,0,3,10,--.--,--.--,,--.--,--.--,--.--,0,0,--.--,--.--,0,0.3,-0.7,-1.1,0.2,-0.4,-0.3,--.--,--.--,--.--,--.--,--.--,--.--,--.--,--.--,--.--,--.--,--.--,--.--,119.91,62.4,--.--,0,0,0.1,0.1,0.1,0,0,0,--.--,--.--,--.--
23:31.5,1.4,-4.5,305,0,0,0,0,0,0,0.2,0.8,-0.1,0.25,0.507,0,0,0:00:12,0.2,0,--.--,--.--,--.--,49,0000:00:00,50,0,0,0,40,0,2,--.--,0,0,0,--.--,0.51,39,--.--,99,--.--,--:--:--,0,--.--,13:23:30,8/1/2022,--.--,--.--,--.--,--.--,--.--,--.--,--.--,--.--,--.--,--.--,--.--,--.--,0,0,0,0,0,0,0,0,0,0,0,0,0,FALSE,FALSE,FALSE,FALSE,FALSE,FALSE,FALSE,FALSE,FALSE,FALSE,FALSE,FALSE,--.--,--.--,--.--,--.--,--.--,--.--,--.--,--.--,48.3887901,-124.7107009,10UCU 73353 60927,1,1,0,3,10,--.--,--.--,,--.--,--.--,--.--,0,0,--.--,--.--,0,0.4,-0.8,-1.1,0,-0.3,-0.2,--.--,--.--,--.--,--.--,--.--,--.--,--.--,--.--,--.--,--.--,--.--,--.--,119.93,62.4,--.--,0,0,0.1,0.1,0.1,0,0,0,--.--,--.--,--.--
23:32.5,2.2,1.6,302,0,0,0,0,0,0,-0.2,0.5,-0.4,0.15,0.313,0,0,0:00:12,0.2,0,--.--,--.--,--.--,49,0000:00:00,50,0,0,0,40,0,2,--.--,0,0,0,--.--,0.52,39,--.--,99,--.--,--:--:--,0,--.--,13:23:31,8/1/2022,--.--,--.--,--.--,--.--,--.--,--.--,--.--,--.--,--.--,--.--,--.--,--.--,0,0,0,0,0,0,0,0,0,0,0,0,0,FALSE,FALSE,FALSE,FALSE,FALSE,FALSE,FALSE,FALSE,FALSE,FALSE,FALSE,FALSE,--.--,--.--,--.--,--.--,--.--,--.--,--.--,--.--,48.3887901,-124.7107009,10UCU 73353 60927,1,1,0,3,10,--.--,--.--,,--.--,--.--,--.--,0,0,--.--,--.--,0,0.3,-0.7,-0.8,0.1,-0.5,0.3,--.--,--.--,--.--,--.--,--.--,--.--,--.--,--.--,--.--,--.--,--.--,--.--,119.95,62.4,--.--,0,0,0.2,0.1,0.1,0,0,0,--.--,--.--,--.--
23:33.5,5.9,-7.7,316,0,0,0,0,0,0,-0.3,-0.2,-1.1,-0.08,-0.137,0,0,0:00:13,0.6,0,--.--,--.--,--.--,49,0000:00:00,50,0,0,0,40,0,2,--.--,0,0,0,--.--,0.54,39,--.--,99,--.--,--:--:--,0,--.--,13:23:32,8/1/2022,--.--,--.--,--.--,--.--,--.--,--.--,--.--,--.--,--.--,--.--,--.--,--.--,0,0,0,0,0,0,0,0,0,0,0,0,0,FALSE,FALSE,FALSE,FALSE,FALSE,FALSE,FALSE,FALSE,FALSE,FALSE,FALSE,FALSE,--.--,--.--,--.--,--.--,--.--,--.--,--.--,--.--,48.3887901,-124.7107009,10UCU 73353 60927,1,1,0,3,10,--.--,--.--,,--.--,--.--,--.--,0,0,--.--,--.--,0,0.8,-1,-0.2,0.8,-0.6,0.3,--.--,--.--,--.--,--.--,--.--,--.--,--.--,--.--,--.--,--.--,--.--,--.--,119.97,62.44,--.--,0,0,0.9,0.4,0.5,0,0,0,--.--,--.--,--.--
23:34.5,7.3,-6.6,325,0,0,0,0,0,0,-1.3,-0.7,-1.6,-0.21,-0.429,0,0,0:00:15,0.9,0,--.--,--.--,--.--,49,0000:00:00,50,0,0,0,40,0,2,--.--,0,0,0,--.--,0.46,40,--.--,99,--.--,--:--:--,0,--.--,13:23:33,8/1/2022,--.--,--.--,--.--,--.--,--.--,--.--,--.--,--.--,--.--,--.--,--.--,--.--,0,0,0,0,0,0,0,0,0,0,0,0,0,FALSE,FALSE,FALSE,FALSE,FALSE,FALSE,FALSE,FALSE,FALSE,FALSE,FALSE,FALSE,--.--,--.--,--.--,--.--,--.--,--.--,--.--,--.--,48.3887901,-124.7107009,10UCU 73353 60927,1,1,0,3,10,--.--,--.--,,--.--,--.--,--.--,0,0,--.--,--.--,0,0.8,-1.3,0.1,-0.5,0.1,1.3,--.--,--.--,--.--,--.--,--.--,--.--,--.--,--.--,--.--,--.--,--.--,--.--,120,62.44,--.--,0,0,0.2,0.3,0.5,0,0,0,--.--,--.--,--.--
23:35.5,3.2,-15.3,322,0,0,0,0,0,0,1.3,1,0.1,0.35,0.543,0,0,0:00:15,0.8,0,--.--,--.--,--.--,49,0000:00:00,50,0,0,0,40,0,2,--.--,0,0,0,--.--,0.55,40,--.--,99,--.--,--:--:--,0,--.--,13:23:34,8/1/2022,--.--,--.--,--.--,--.--,--.--,--.--,--.--,--.--,--.--,--.--,--.--,--.--,0,0,0,0,0,0,0,0,0,0,0,0,0,FALSE,FALSE,FALSE,FALSE,FALSE,FALSE,FALSE,FALSE,FALSE,FALSE,FALSE,FALSE,--.--,--.--,--.--,--.--,--.--,--.--,--.--,--.--,48.3887901,-124.7107009,10UCU 73353 60927,1,1,0,3,10,--.--,--.--,,--.--,--.--,--.--,0,0,--.--,--.--,0,-0.4,-0.3,-1.7,-1,0.6,-1.3,--.--,--.--,--.--,--.--,--.--,--.--,--.--,--.--,--.--,--.--,--.--,--.--,120.02,62.44,--.--,0,0,0.2,0.2,0.2,0,0,0,--.--,--.--,--.--
23:36.5,-16.4,-60.2,333,0,0,0,0,0,0,0.9,1.8,0.9,0.53,1.089,0,0,0:00:16,1.6,0,--.--,--.--,--.--,49,0000:00:00,50,0,0,0,40,0,2,--.--,0,0,0,--.--,0.54,40,--.--,99,--.--,--:--:--,0,--.--,13:23:35,8/1/2022,--.--,--.--,--.--,--.--,--.--,--.--,--.--,--.--,--.--,--.--,--.--,--.--,0,0,0,0,0,0,0,0,0,0,0,0,0,FALSE,FALSE,FALSE,FALSE,FALSE,FALSE,FALSE,FALSE,FALSE,FALSE,FALSE,FALSE,--.--,--.--,--.--,--.--,--.--,--.--,--.--,--.--,48.3887901,-124.7107009,10UCU 73353 60927,1,1,0,3,10,--.--,--.--,,--.--,--.--,--.--,0,0,--.--,--.--,0,-1,0.3,-2.4,-1.3,0.8,-0.9,--.--,--.--,--.--,--.--,--.--,--.--,--.--,--.--,--.--,--.--,--.--,--.--,120.04,62.44,--.--,0,0,0.1,0.1,0.2,0,0,0,--.--,--.--,--.--
23:37.5,-25.7,-54.2,333,0,0,0,0,0,0,0.2,1.2,0.3,0.37,0.795,0,0,0:00:17,1.8,0,--.--,--.--,--.--,49,0000:00:00,50,0,0,0,40,0,2,--.--,0,0,0,--.--,0.54,40,--.--,99,--.--,--:--:--,0,--.--,13:23:36,8/1/2022,--.--,--.--,--.--,--.--,--.--,--.--,--.--,--.--,--.--,--.--,--.--,--.--,0,0,0,0,0,0,0,0,0,0,0,0,0,FALSE,FALSE,FALSE,FALSE,FALSE,FALSE,FALSE,FALSE,FALSE,FALSE,FALSE,FALSE,--.--,--.--,--.--,--.--,--.--,--.--,--.--,--.--,48.3887901,-124.7107009,10UCU 73353 60927,1,1,0,3,10,--.--,--.--,,--.--,--.--,--.--,0,0,--.--,--.--,0,-1.2,0.3,-1.9,-0.8,0.3,-0.3,--.--,--.--,--.--,--.--,--.--,--.--,--.--,--.--,--.--,--.--,--.--,--.--,120.06,62.44,--.--,0,0,0.1,0.3,0.1,0,0,0,--.--,--.--,--.--
23:38.5,-42.5,-41.2,346,0,0,0,0,0,0,0,0.5,-0.4,0.15,0.326,0,0,0:00:18,1.3,0,--.--,--.--,--.--,49,0000:00:00,50,0,0,0,40,0,2,--.--,0,0,0,--.--,0.55,40,--.--,99,--.--,--:--:--,0,--.--,13:23:37,8/1/2022,--.--,--.--,--.--,--.--,--.--,--.--,--.--,--.--,--.--,--.--,--.--,--.--,0,0,0,0,0,0,0,0,0,0,0,0,0,FALSE,FALSE,FALSE,FALSE,FALSE,FALSE,FALSE,FALSE,FALSE,FALSE,FALSE,FALSE,--.--,--.--,--.--,--.--,--.--,--.--,--.--,--.--,48.3887901,-124.7107009,10UCU 73353 60927,1,1,0,3,10,--.--,--.--,,--.--,--.--,--.--,0,0,--.--,--.--,0,-0.8,0,-0.9,-0.3,-0.1,0,--.--,--.--,--.--,--.--,--.--,--.--,--.--,--.--,--.--,--.--,--.--,--.--,120.07,62.44,--.--,0,0,0.3,0.4,0.2,0,0,0,--.--,--.--,--.--
23:39.5,-44.1,-19.3,345,0,0,0,0,0,0,0.6,1.3,0.4,0.39,0.799,0,0,0:00:19,0.8,0,--.--,--.--,--.--,49,0000:00:00,50,0,0,0,40,0,2,--.--,0,0,0,--.--,0.55,40,--.--,99,--.--,--:--:--,0,--.--,13:23:38,8/1/2022,--.--,--.--,--.--,--.--,--.--,--.--,--.--,--.--,--.--,--.--,--.--,--.--,0,0,0,0,0,0,0,0,0,0,0,0,0,FALSE,FALSE,FALSE,FALSE,FALSE,FALSE,FALSE,FALSE,FALSE,FALSE,FALSE,FALSE,--.--,--.--,--.--,--.--,--.--,--.--,--.--,--.--,48.3887901,-124.7107009,10UCU 73353 60927,1,1,0,3,10,--.--,--.--,,--.--,--.--,--.--,0,0,--.--,--.--,0,-0.4,-0.1,-1.7,-0.2,0.2,-0.6,--.--,--.--,--.--,--.--,--.--,--.--,--.--,--.--,--.--,--.--,--.--,--.--,120.11,62.46,--.--,0,0,0.1,0.1,0.1,0,0,0,--.--,--.--,--.--
23:40.5,-1.6,-20.6,310,0,0,0,0,0,0,0,0.9,-0.1,0.26,0.577,0,0,0:00:21,0.9,0,--.--,--.--,--.--,49,0000:00:00,50,0,0,0,40,0,2,--.--,0,0,0,--.--,0.53,40,--.--,99,--.--,--:--:--,0,--.--,13:23:39,8/1/2022,--.--,--.--,--.--,--.--,--.--,--.--,--.--,--.--,--.--,--.--,--.--,--.--,0,0,0,0,0,0,0,0,0,0,0,0,0,FALSE,FALSE,FALSE,FALSE,FALSE,FALSE,FALSE,FALSE,FALSE,FALSE,FALSE,FALSE,--.--,--.--,--.--,--.--,--.--,--.--,--.--,--.--,48.3887901,-124.7107009,10UCU 73353 60927,1,1,0,3,10,--.--,--.--,,--.--,--.--,--.--,0,0,--.--,--.--,0,-0.2,0.2,-1,-0.1,0.7,0.1,--.--,--.--,--.--,--.--,--.--,--.--,--.--,--.--,--.--,--.--,--.--,--.--,120.13,62.46,--.--,0,0,0.3,0.5,0.3,0,0,0,--.--,--.--,--.--
23:41.5,-0.2,-0.4,311,0,0,0,0,0,0,1.1,1.1,0.2,0.35,0.72,0,0,0:00:21,0.6,0,--.--,--.--,--.--,49,0000:00:00,50,0,0,0,40,0,2,--.--,0,0,0,--.--,0.5,41,--.--,99,--.--,--:--:--,0,--.--,13:23:40,8/1/2022,--.--,--.--,--.--,--.--,--.--,--.--,--.--,--.--,--.--,--.--,--.--,--.--,0,0,0,0,0,0,0,0,0,0,0,0,0,FALSE,FALSE,FALSE,FALSE,FALSE,FALSE,FALSE,FALSE,FALSE,FALSE,FALSE,FALSE,--.--,--.--,--.--,--.--,--.--,--.--,--.--,--.--,48.3887901,-124.7107009,10UCU 73353 60927,1,1,0,3,10,--.--,--.--,,--.--,--.--,--.--,0,0,--.--,--.--,0,-0.1,-0.1,-1.3,-0.6,0,-1.2,--.--,--.--,--.--,--.--,--.--,--.--,--.--,--.--,--.--,--.--,--.--,--.--,120.15,62.46,--.--,0,0,0.3,0.3,0.2,0,0,0,--.--,--.--,--.--
23:42.5,3.7,12.2,317,0,0,0,0,0,0,-0.4,0.7,-0.3,0.16,0.324,0,0,0:00:22,0.7,0,--.--,--.--,--.--,49,0000:00:00,50,0,0,0,40,0,2,--.--,0,0,0,--.--,0.51,41,--.--,99,--.--,--:--:--,0,--.--,13:23:41,8/1/2022,--.--,--.--,--.--,--.--,--.--,--.--,--.--,--.--,--.--,--.--,--.--,--.--,0,0,0,0,0,0,0,0,0,0,0,0,0,FALSE,FALSE,FALSE,FALSE,FALSE,FALSE,FALSE,FALSE,FALSE,FALSE,FALSE,FALSE,--.--,--.--,--.--,--.--,--.--,--.--,--.--,--.--,48.3887901,-124.7107009,10UCU 73353 60927,1,1,0,3,10,--.--,--.--,,--.--,--.--,--.--,0,0,--.--,--.--,0,-0.3,-0.3,-0.9,-0.2,-0.2,0.3,--.--,--.--,--.--,--.--,--.--,--.--,--.--,--.--,--.--,--.--,--.--,--.--,120.16,61.75,--.--,0,0,0.1,0.1,0.1,0,0,0,--.--,--.--,--.--
23:43.5,6.3,3.1,326,0,0,0,0,0,0,-1.1,-1.1,-2,-0.35,-0.643,0,0,0:00:23,0.2,0,--.--,--.--,--.--,49,0000:00:00,50,0,0,0,40,0,2,--.--,0,0,0,--.--,0.58,41,--.--,99,--.--,--:--:--,0,--.--,13:23:42,8/1/2022,--.--,--.--,--.--,--.--,--.--,--.--,--.--,--.--,--.--,--.--,--.--,--.--,0,0,0,0,0,0,0,0,0,0,0,0,0,FALSE,FALSE,FALSE,FALSE,FALSE,FALSE,FALSE,FALSE,FALSE,FALSE,FALSE,FALSE,--.--,--.--,--.--,--.--,--.--,--.--,--.--,--.--,48.3887901,-124.7107009,10UCU 73353 60927,1,1,0,3,10,--.--,--.--,,--.--,--.--,--.--,0,0,--.--,--.--,0,0.4,-0.4,0.9,0.6,-0.4,1.1,--.--,--.--,--.--,--.--,--.--,--.--,--.--,--.--,--.--,--.--,--.--,--.--,120.18,60.98,--.--,0,0,0.1,0.1,0.1,0,0,0,--.--,--.--,--.--
23:44.5,3.7,2.4,333,0,0,0,0,0,0,0.9,0.3,-0.7,0.07,-0.005,0,0,0:00:24,0.3,0,--.--,--.--,--.--,49,0000:00:00,50,0,0,0,40,0,2,--.--,0,0,0,--.--,0.52,41,--.--,99,--.--,--:--:--,0,--.--,13:23:43,8/1/2022,--.--,--.--,--.--,--.--,--.--,--.--,--.--,--.--,--.--,--.--,--.--,--.--,0,0,0,0,0,0,0,0,0,0,0,0,0,FALSE,FALSE,FALSE,FALSE,FALSE,FALSE,FALSE,FALSE,FALSE,FALSE,FALSE,FALSE,--.--,--.--,--.--,--.--,--.--,--.--,--.--,--.--,48.3887901,-124.7107009,10UCU 73353 60927,1,1,0,3,10,--.--,--.--,,--.--,--.--,--.--,0,0,--.--,--.--,0,0.7,-0.7,-0.7,0.4,-0.7,-1,--.--,--.--,--.--,--.--,--.--,--.--,--.--,--.--,--.--,--.--,--.--,--.--,120.2,60.21,--.--,0,0,0,0.1,0,0,0,0,--.--,--.--,--.--
23:45.5,4.3,10.4,340,0,0,0,0,0,0,0.9,1.7,0.8,0.52,1.052,0,0,0:00:25,0.3,0,--.--,--.--,--.--,49,0000:00:00,50,0,0,0,40,0,2,--.--,0,0,0,--.--,1.07,41,--.--,99,--.--,--:--:--,0,--.--,13:23:44,8/1/2022,--.--,--.--,--.--,--.--,--.--,--.--,--.--,--.--,--.--,--.--,--.--,--.--,0,0,0,0,0,0,0,0,0,0,0,0,0,FALSE,FALSE,FALSE,FALSE,FALSE,FALSE,FALSE,FALSE,FALSE,FALSE,FALSE,FALSE,--.--,--.--,--.--,--.--,--.--,--.--,--.--,--.--,48.3887901,-124.7107009,10UCU 73353 60927,1,1,0,3,10,--.--,--.--,,--.--,--.--,--.--,0,0,--.--,--.--,0,0.1,-0.5,-2.1,-0.7,0.1,-1.1,--.--,--.--,--.--,--.--,--.--,--.--,--.--,--.--,--.--,--.--,--.--,--.--,120.22,59.49,--.--,0,0,0.3,0.3,0.3,0,0,0,--.--,--.--,--.--
23:46.5,3.3,3.6,281,0,0,0,0,0,0,-0.2,0.6,-0.4,0.15,0.293,0,0,0:00:26,1,0,--.--,--.--,--.--,53,0000:00:00,50,0,0,0,40,0,2,--.--,0,0,0,--.--,21.03,46,--.--,99,--.--,--:--:--,0,--.--,13:23:45,8/1/2022,--.--,--.--,--.--,--.--,--.--,--.--,--.--,--.--,--.--,--.--,--.--,--.--,0,0,0,0,0,0,0,0,0,0,0,0,0,FALSE,FALSE,FALSE,FALSE,FALSE,FALSE,FALSE,FALSE,FALSE,FALSE,FALSE,FALSE,--.--,--.--,--.--,--.--,--.--,--.--,--.--,--.--,48.3887901,-124.7107009,10UCU 73353 60927,1,1,0,3,10,--.--,--.--,,--.--,--.--,--.--,0,0,--.--,--.--,0,-0.7,-0.6,-0.8,-1.4,-0.3,0.2,--.--,--.--,--.--,--.--,--.--,--.--,--.--,--.--,--.--,--.--,--.--,--.--,120.24,58.91,--.--,0,0,0.8,0.6,0.7,0,0,0,--.--,--.--,--.--
23:47.5,19.4,-6.5,229,0,0,0,0,0,0,-1.3,-0.5,-1.4,-0.16,-0.154,0,0,0:00:27,1.4,0,--.--,--.--,--.--,65,0000:00:00,50,0,0,0,40,0,2,--.--,0,0,0,--.--,10.98,51,--.--,99,--.--,--:--:--,0,--.--,13:23:46,8/1/2022,--.--,--.--,--.--,--.--,--.--,--.--,--.--,--.--,--.--,--.--,--.--,--.--,0,0,0,0,0,0,0,0,0,0,0,0,0,FALSE,FALSE,FALSE,FALSE,FALSE,FALSE,FALSE,FALSE,FALSE,FALSE,FALSE,FALSE,--.--,--.--,--.--,--.--,--.--,--.--,--.--,--.--,48.3887901,-124.7107009,10UCU 73353 60927,1,1,0,3,10,--.--,--.--,,--.--,--.--,--.--,0,0,--.--,--.--,0,-0.6,-1.6,0,-0.4,-1.7,1.3,--.--,--.--,--.--,--.--,--.--,--.--,--.--,--.--,--.--,--.--,--.--,--.--,120.25,58.24,--.--,0,0,0.4,0.4,0.3,0,0,0,--.--,--.--,--.--
23:48.5,2.8,-5.2,230,0,0,0,0,0,0,-0.3,-0.2,-1.1,-0.1,-0.08,0,0,0:00:28,2.3,0,--.--,--.--,--.--,47,0000:00:00,50,0,0,0,40,0,2,--.--,0,0,0,--.--,12.53,57,--.--,99,--.--,--:--:--,0,--.--,13:23:47,8/1/2022,--.--,--.--,--.--,--.--,--.--,--.--,--.--,--.--,--.--,--.--,--.--,--.--,0,0,0,0,0,0,0,0,0,0,0,0,0,FALSE,FALSE,FALSE,FALSE,FALSE,FALSE,FALSE,FALSE,FALSE,FALSE,FALSE,FALSE,--.--,--.--,--.--,--.--,--.--,--.--,--.--,--.--,48.3887901,-124.7107009,10UCU 73353 60927,1,1,0,3,10,--.--,--.--,,--.--,--.--,--.--,0,0,--.--,--.--,0,0.3,-2.8,-0.5,0.7,-2.6,0.3,--.--,--.--,--.--,--.--,--.--,--.--,--.--,--.--,--.--,--.--,--.--,--.--,120.27,57.51,--.--,0,0,0.7,0.7,0.4,0,0,0,--.--,--.--,--.--
23:49.5,10.3,-9.3,228,0,0,0,0,0,0,0.3,0.5,-0.5,0.13,0.175,0,0,0:00:29,3,0,--.--,--.--,--.--,29,0000:00:00,50,0,0,0,40,0,2,--.--,0,0,0,--.--,22.04,61,--.--,99,--.--,--:--:--,0,--.--,13:23:48,8/1/2022,--.--,--.--,--.--,--.--,--.--,--.--,--.--,--.--,--.--,--.--,--.--,--.--,0,0,0,0,0,0,0,0,0,0,0,0,0,FALSE,FALSE,FALSE,FALSE,FALSE,FALSE,FALSE,FALSE,FALSE,FALSE,FALSE,FALSE,--.--,--.--,--.--,--.--,--.--,--.--,--.--,--.--,48.3887901,-124.7107009,10UCU 73353 60927,1,1,0,3,10,--.--,--.--,,--.--,--.--,--.--,0,0,--.--,--.--,0,0.5,-3.6,-1.2,0.6,-2.4,-0.3,--.--,--.--,--.--,--.--,--.--,--.--,--.--,--.--,--.--,--.--,--.--,--.--,120.29,56.89,--.--,0,0,1.5,1,0.5,0,0,0,--.--,--.--,--.--
23:50.5,3,-0.1,225,0,0,0,0,0,0,0,0.1,-0.8,0.03,-0.045,0,0,0:00:30,2.6,0,--.--,--.--,--.--,44,0000:00:00,50,0,0,0,40,0,2,--.--,0,0,0,--.--,6.59,65,--.--,99,--.--,--:--:--,0,--.--,13:23:49,8/1/2022,--.--,--.--,--.--,--.--,--.--,--.--,--.--,--.--,--.--,--.--,--.--,--.--,0,0,0,0,0,0,0,0,0,0,0,0,0,FALSE,FALSE,FALSE,FALSE,FALSE,FALSE,FALSE,FALSE,FALSE,FALSE,FALSE,FALSE,--.--,--.--,--.--,--.--,--.--,--.--,--.--,--.--,48.3887901,-124.7107009,10UCU 73353 60927,1,1,0,3,10,--.--,--.--,,--.--,--.--,--.--,0,0,--.--,--.--,0,0.3,-3.2,-0.8,0.4,-1.7,0,--.--,--.--,--.--,--.--,--.--,--.--,--.--,--.--,--.--,--.--,--.--,--.--,120.31,56.34,--.--,0,0,0.4,0.7,0.4,0,0,0,--.--,--.--,--.--
23:51.5,-10.3,12.9,230,0,0,0,0,0,0,0.2,-0.5,-1.4,-0.17,-0.448,0,0,0:00:31,2.5,0,--.--,--.--,--.--,66,0000:00:00,50,0,0,0,40,0,2,--.--,0,0,0,--.--,4.23,66,--.--,99,--.--,--:--:--,0,--.--,13:23:50,8/1/2022,--.--,--.--,--.--,--.--,--.--,--.--,--.--,--.--,--.--,--.--,--.--,--.--,0,0,0,0,0,0,0,0,0,0,0,0,0,FALSE,FALSE,FALSE,FALSE,FALSE,FALSE,FALSE,FALSE,FALSE,FALSE,FALSE,FALSE,--.--,--.--,--.--,--.--,--.--,--.--,--.--,--.--,48.3887825,-124.7106018,10UCU 73360 60926,1,1,0,3,10,--.--,--.--,,--.--,--.--,--.--,0,0,--.--,--.--,0,0.9,-3,-0.1,1,-1.4,-0.2,--.--,--.--,--.--,--.--,--.--,--.--,--.--,--.--,--.--,--.--,--.--,--.--,120.33,55.85,--.--,0,0,0.2,0.2,0.1,0,0,0,--.--,--.--,--.--
23:52.5,-4.8,3.9,237,0,0,0,0,0,0,0.4,-0.1,-1,-0.05,-0.181,0,0,0:00:32,3.2,0,--.--,--.--,--.--,56,0000:00:00,50,0,0,0,40,0,2,--.--,0,0,0,--.--,1.06,68,--.--,99,--.--,--:--:--,0,--.--,13:23:51,8/1/2022,--.--,--.--,--.--,--.--,--.--,--.--,--.--,--.--,--.--,--.--,--.--,--.--,0,0,0,0,0,0,0,0,0,0,0,0,0,FALSE,FALSE,FALSE,FALSE,FALSE,FALSE,FALSE,FALSE,FALSE,FALSE,FALSE,FALSE,--.--,--.--,--.--,--.--,--.--,--.--,--.--,--.--,48.3887825,-124.7106018,10UCU 73360 60926,1,1,0,3,10,--.--,--.--,,--.--,--.--,--.--,0,0,--.--,--.--,0,0.8,-3.7,-0.5,0.7,-1.5,-0.4,--.--,--.--,--.--,--.--,--.--,--.--,--.--,--.--,--.--,--.--,--.--,--.--,120.34,55.45,--.--,0,0,0.1,0.1,0.1,0,0,0,--.--,--.--,--.--
23:53.5,1.9,-3.7,236,0,0,0,0,0,0,0.3,0.5,-0.5,0.12,0.168,0,0,0:00:33,2.9,0,--.--,--.--,--.--,34,0000:00:00,50,0,0,0,40,0,2,--.--,0,0,0,--.--,2.53,68,--.--,99,--.--,--:--:--,0,--.--,13:23:52,8/1/2022,--.--,--.--,--.--,--.--,--.--,--.--,--.--,--.--,--.--,--.--,--.--,--.--,0,0,0,0,0,0,0,0,0,0,0,0,0,FALSE,FALSE,FALSE,FALSE,FALSE,FALSE,FALSE,FALSE,FALSE,FALSE,FALSE,FALSE,--.--,--.--,--.--,--.--,--.--,--.--,--.--,--.--,48.3887748,-124.7105331,10UCU 73365 60925,1,1,0,3,10,--.--,--.--,,--.--,--.--,--.--,0,0,--.--,--.--,0,0.7,-3.5,-1.2,0.6,-0.9,-0.4,--.--,--.--,--.--,--.--,--.--,--.--,--.--,--.--,--.--,--.--,--.--,--.--,120.36,55.06,--.--,0,0,0.1,0.1,0.1,0,0,0,--.--,--.--,--.--
23:54.5,2.9,-3.5,236,0,0,0,0,0,0,-0.1,0.4,-0.6,0.1,0.148,0,0,0:00:34,2.6,0,--.--,--.--,--.--,43,0000:00:00,50,0,0,0,40,0,2,--.--,0,0,0,--.--,1.65,70,--.--,99,--.--,--:--:--,0,--.--,13:23:53,8/1/2022,--.--,--.--,--.--,--.--,--.--,--.--,--.--,--.--,--.--,--.--,--.--,--.--,0,0,0,0,0,0,0,0,0,0,0,0,0,FALSE,FALSE,FALSE,FALSE,FALSE,FALSE,FALSE,FALSE,FALSE,FALSE,FALSE,FALSE,--.--,--.--,--.--,--.--,--.--,--.--,--.--,--.--,48.3887748,-124.7105331,10UCU 73365 60925,1,1,0,3,10,--.--,--.--,,--.--,--.--,--.--,0,0,--.--,--.--,0,0.4,-3.2,-1,0.1,-0.5,0.2,--.--,--.--,--.--,--.--,--.--,--.--,--.--,--.--,--.--,--.--,--.--,--.--,120.38,54.75,--.--,0,0,0.2,0.2,0.2,0,0,0,--.--,--.--,--.--
23:55.5,-0.8,5.6,230,0,0,0,0,0,0,-0.2,0,-0.9,-0.01,-0.094,0,0,0:00:35,2.6,0,--.--,--.--,--.--,60,0000:00:00,50,0,0,0,40,0,2,--.--,0,0,0,--.--,3.23,71,--.--,99,--.--,--:--:--,0,--.--,13:23:54,8/1/2022,--.--,--.--,--.--,--.--,--.--,--.--,--.--,--.--,--.--,--.--,--.--,--.--,0,0,0,0,0,0,0,0,0,0,0,0,0,FALSE,FALSE,FALSE,FALSE,FALSE,FALSE,FALSE,FALSE,FALSE,FALSE,FALSE,FALSE,--.--,--.--,--.--,--.--,--.--,--.--,--.--,--.--,48.3887748,-124.7105331,10UCU 73365 60925,1,1,0,3,10,--.--,--.--,,--.--,--.--,--.--,0,0,--.--,--.--,0,0,-3.2,-0.7,-0.2,-0.6,0.2,--.--,--.--,--.--,--.--,--.--,--.--,--.--,--.--,--.--,--.--,--.--,--.--,120.4,54.46,--.--,0,0,0.3,0.3,0.3,0,0,0,--.--,--.--,--.--
23:56.5,-1.2,-1.1,232,0,0,0,0,0,0,0,0.1,-0.8,0.03,0.03,0,0,0:00:36,2.3,0,--.--,--.--,--.--,30,0000:00:00,50,0,0,0,40,0,2,--.--,0,0,0,--.--,12.52,73,--.--,99,--.--,--:--:--,0,--.--,13:23:55,8/1/2022,--.--,--.--,--.--,--.--,--.--,--.--,--.--,--.--,--.--,--.--,--.--,--.--,0,0,0,0,0,0,0,0,0,0,0,0,0,FALSE,FALSE,FALSE,FALSE,FALSE,FALSE,FALSE,FALSE,FALSE,FALSE,FALSE,FALSE,--.--,--.--,--.--,--.--,--.--,--.--,--.--,--.--,48.3887748,-124.7105331,10UCU 73365 60925,1,1,0,3,10,--.--,--.--,,--.--,--.--,--.--,0,0,--.--,--.--,0,0.6,-2.9,-0.9,0.6,-0.5,-0.1,--.--,--.--,--.--,--.--,--.--,--.--,--.--,--.--,--.--,--.--,--.--,--.--,120.42,54.21,--.--,0,0,1,0.5,0.4,0,0,0,--.--,--.--,--.--
23:57.5,3,-3.4,230,0,0,0,0,0,0,0.3,0.6,-0.3,0.18,0.311,0,0,0:00:37,2.2,0,--.--,--.--,--.--,19,0000:00:00,50,0,0,0,40,0,2,--.--,0,0,0,--.--,18.01,77,--.--,99,--.--,--:--:--,0,--.--,13:23:56,8/1/2022,--.--,--.--,--.--,--.--,--.--,--.--,--.--,--.--,--.--,--.--,--.--,--.--,0,0,0,0,0,0,0,0,0,0,0,0,0,FALSE,FALSE,FALSE,FALSE,FALSE,FALSE,FALSE,FALSE,FALSE,FALSE,FALSE,FALSE,--.--,--.--,--.--,--.--,--.--,--.--,--.--,--.--,48.3887748,-124.7105331,10UCU 73365 60925,1,1,0,3,10,--.--,--.--,,--.--,--.--,--.--,0,0,--.--,--.--,0,0.2,-2.8,-1.3,0.1,-0.1,-0.4,--.--,--.--,--.--,--.--,--.--,--.--,--.--,--.--,--.--,--.--,--.--,--.--,120.43,53.98,--.--,0,0,0.9,0.6,0.4,0,0,0,--.--,--.--,--.--
23:58.5,1.9,-1.6,235,0,0,0,0,0,0,0.1,-0.2,-1.1,-0.08,-0.216,0,0,0:00:38,2,0,--.--,--.--,--.--,52,0000:00:00,50,0,0,0,40,0,2,--.--,0,0,0,--.--,1.9,79,--.--,99,--.--,--:--:--,0,--.--,13:23:57,8/1/2022,--.--,--.--,--.--,--.--,--.--,--.--,--.--,--.--,--.--,--.--,--.--,--.--,0,0,0,0,0,0,0,0,0,0,0,0,0,FALSE,FALSE,FALSE,FALSE,FALSE,FALSE,FALSE,FALSE,FALSE,FALSE,FALSE,FALSE,--.--,--.--,--.--,--.--,--.--,--.--,--.--,--.--,48.3887748,-124.7105331,10UCU 73365 60925,1,1,0,3,10,--.--,--.--,,--.--,--.--,--.--,0,0,--.--,--.--,0,-0.3,-2.4,-0.5,-0.8,0.4,-0.1,--.--,--.--,--.--,--.--,--.--,--.--,--.--,--.--,--.--,--.--,--.--,--.--,120.45,53.71,--.--,0,0,0.2,0.3,0.2,0,0,0,--.--,--.--,--.--
23:59.5,-11,8.8,233,0,0,0,0,0,0,-0.1,-1.1,-2,-0.33,-0.371,0,0,0:00:39,2,0,--.--,--.--,--.--,61,0000:00:00,50,0,0,0,40,0,2,--.--,0,0,0,--.--,5.03,80,--.--,99,--.--,--:--:--,0,--.--,13:23:58,8/1/2022,--.--,--.--,--.--,--.--,--.--,--.--,--.--,--.--,--.--,--.--,--.--,--.--,0,0,0,0,0,0,0,0,0,0,0,0,0,FALSE,FALSE,FALSE,FALSE,FALSE,FALSE,FALSE,FALSE,FALSE,FALSE,FALSE,FALSE,--.--,--.--,--.--,--.--,--.--,--.--,--.--,--.--,48.3887748,-124.7105331,10UCU 73365 60925,1,1,0,3,10,--.--,--.--,,--.--,--.--,--.--,0,0,--.--,--.--,0,-0.4,-2.4,0.4,-1,0.5,0.2,--.--,--.--,--.--,--.--,--.--,--.--,--.--,--.--,--.--,--.--,--.--,--.--,120.45,53.46,--.--,0,0,0.2,0.2,0.2,0,0,0,--.--,--.--,--.--
24:00.5,-9.8,7.3,233,0,0,0,0,0,0,-0.2,-1.5,-2.4,-0.46,-0.642,0,0,0:00:40,2,0,--.--,--.--,--.--,74,0000:00:00,50,0,0,0,40,0,2,--.--,0,0,0,--.--,10.67,82,--.--,99,--.--,--:--:--,0,--.--,13:23:59,8/1/2022,--.--,--.--,--.--,--.--,--.--,--.--,--.--,--.--,--.--,--.--,--.--,--.--,0,0,0,0,0,0,0,0,0,0,0,0,0,FALSE,FALSE,FALSE,FALSE,FALSE,FALSE,FALSE,FALSE,FALSE,FALSE,FALSE,FALSE,--.--,--.--,--.--,--.--,--.--,--.--,--.--,--.--,48.3887748,-124.7105331,10UCU 73365 60925,1,1,0,3,10,--.--,--.--,,--.--,--.--,--.--,0,0,--.--,--.--,0,0,-2.5,0.8,-0.5,0.4,0.2,--.--,--.--,--.--,--.--,--.--,--.--,--.--,--.--,--.--,--.--,--.--,--.--,120.47,53.28,--.--,0,0,0.2,0.2,0.3,0,0,0,--.--,--.--,--.--
24:01.5,0.8,5.6,234,0,0,0,0,0,0,0.1,-0.5,-1.4,-0.17,-0.17,0,41.3,0:00:41,41.2,0,--.--,278,--.--,30,0000:00:00,50,0,0,0,40,0,2,--.--,0,0,0,--.--,1.2,83,--.--,99,--.--,--:--:--,0,--.--,13:24:00,8/1/2022,--.--,--.--,--.--,--.--,--.--,--.--,--.--,--.--,--.--,--.--,--.--,--.--,0,0,0,0,0,0,0,0,0,0,0,0,0,FALSE,FALSE,FALSE,FALSE,FALSE,FALSE,FALSE,FALSE,FALSE,FALSE,FALSE,FALSE,--.--,--.--,--.--,--.--,--.--,--.--,--.--,--.--,48.3887748,-124.7105331,10UCU 73365 60925,1,1,0,3,10,--.--,--.--,,--.--,--.--,--.--,0,0,--.--,--.--,0,-5.1,40.3,-0.2,0.6,-0.2,-0.1,--.--,--.--,--.--,--.--,--.--,--.--,--.--,--.--,--.--,--.--,--.--,--.--,120.49,53.06,--.--,0,0,0.2,0.2,0.2,0,0,0,--.--,--.--,--.--
24:02.5,8.2,-9.6,233,0,0,0,0,0,0,0.3,0.2,-0.8,0.05,0.02,0,41.3,0:00:42,41.1,0,--.--,277,--.--,30,0000:00:00,50,0,0,0,40,0,2,--.--,0,0,0,--.--,6.56,85,--.--,99,--.--,--:--:--,0,--.--,13:24:01,8/1/2022,--.--,--.--,--.--,--.--,--.--,--.--,--.--,--.--,--.--,--.--,--.--,--.--,0,0,0,0,0,0,0,0,0,0,0,0,0,FALSE,FALSE,FALSE,FALSE,FALSE,FALSE,FALSE,FALSE,FALSE,FALSE,FALSE,FALSE,--.--,--.--,--.--,--.--,--.--,--.--,--.--,--.--,48.3887748,-124.7105331,10UCU 73365 60925,1,1,0,3,10,--.--,--.--,,--.--,--.--,--.--,0,0,--.--,--.--,0,-4.8,40.3,-1.1,0.4,0.1,-0.2,--.--,--.--,--.--,--.--,--.--,--.--,--.--,--.--,--.--,--.--,--.--,--.--,120.51,52.88,--.--,0,0,0.2,0.2,0.1,0,0,0,--.--,--.--,--.--
24:03.5,2.8,-4,232,0,0,0,0,0,0,0.4,0.7,-0.2,0.2,0.21,0,41.3,0:00:43,41.5,0,--.--,278,--.--,30,0000:00:00,50,0,0,0,40,0,2,--.--,0,0,0,--.--,6.36,87,--.--,99,--.--,--:--:--,0,--.--,13:24:02,8/1/2022,--.--,--.--,--.--,--.--,--.--,--.--,--.--,--.--,--.--,--.--,--.--,--.--,0,0,0,0,0,0,0,0,0,0,0,0,0,FALSE,FALSE,FALSE,FALSE,FALSE,FALSE,FALSE,FALSE,FALSE,FALSE,FALSE,FALSE,--.--,--.--,--.--,--.--,--.--,--.--,--.--,--.--,48.3887748,-124.7105331,10UCU 73365 60925,1,1,0,3,10,--.--,--.--,,--.--,--.--,--.--,0,0,--.--,--.--,0,-5.3,40.7,-1.5,-0.3,0.2,-0.5,--.--,--.--,--.--,--.--,--.--,--.--,--.--,--.--,--.--,--.--,--.--,--.--,120.52,52.7,--.--,0,0,0.3,0.3,0.4,0,0,0,--.--,--.--,--.--
24:04.5,2,-2.8,232,0,0,0,0,0,0,-0.6,-0.7,-1.6,-0.24,-0.18,0,41.3,0:00:44,41.6,0,--.--,278,--.--,30,0000:00:00,50,0,0,0,40,0,2,--.--,0,0,0,--.--,6.31,89,--.--,99,--.--,--:--:--,0,--.--,13:24:03,8/1/2022,--.--,--.--,--.--,--.--,--.--,--.--,--.--,--.--,--.--,--.--,--.--,--.--,0,0,0,0,0,0,0,0,0,0,0,0,0,FALSE,FALSE,FALSE,FALSE,FALSE,FALSE,FALSE,FALSE,FALSE,FALSE,FALSE,FALSE,--.--,--.--,--.--,--.--,--.--,--.--,--.--,--.--,48.3887748,-124.7105331,10UCU 73365 60925,1,1,0,3,10,--.--,--.--,,--.--,--.--,--.--,0,0,--.--,--.--,0,-5.8,40.7,-0.1,-0.5,0.2,0.6,--.--,--.--,--.--,--.--,--.--,--.--,--.--,--.--,--.--,--.--,--.--,--.--,120.54,52.52,--.--,0,0,0.2,0.2,0.1,0,0,0,--.--,--.--,--.--
24:05.5,-10.8,8.1,228,0,0,0,0,0,0,0,-1.7,-2.7,-0.54,-0.54,0,41.3,0:00:45,41.8,0,--.--,279,--.--,71,0000:00:00,50,0,0,0,40,0,2,--.--,0,0,0,--.--,6.66,93,--.--,99,--.--,--:--:--,0,--.--,13:24:04,8/1/2022,--.--,--.--,--.--,--.--,--.--,--.--,--.--,--.--,--.--,--.--,--.--,--.--,0,0,0,0,0,0,0,0,0,0,0,0,0,FALSE,FALSE,FALSE,FALSE,FALSE,FALSE,FALSE,FALSE,FALSE,FALSE,FALSE,FALSE,--.--,--.--,--.--,--.--,--.--,--.--,--.--,--.--,48.3887748,-124.7105331,10UCU 73365 60925,1,1,0,3,10,--.--,--.--,,--.--,--.--,--.--,0,0,--.--,--.--,0,-6,40.8,1,-0.5,0.3,0,--.--,--.--,--.--,--.--,--.--,--.--,--.--,--.--,--.--,--.--,--.--,--.--,120.56,52.34,--.--,0,0,0.3,0.3,0.3,0,0,0,--.--,--.--,--.--
24:06.5,-3.2,5.7,229,0,0,0,0,0,0,-0.2,-1.6,-2.5,-0.49,-0.459,0,41.3,0:00:46,41.6,0,--.--,279,--.--,51,0000:00:00,50,0,0,0,40,0,2,--.--,0,0,0,--.--,0.79,93,--.--,99,--.--,--:--:--,0,--.--,13:24:05,8/1/2022,--.--,--.--,--.--,--.--,--.--,--.--,--.--,--.--,--.--,--.--,--.--,--.--,0,0,0,0,0,0,0,0,0,0,0,0,0,FALSE,FALSE,FALSE,FALSE,FALSE,FALSE,FALSE,FALSE,FALSE,FALSE,FALSE,FALSE,--.--,--.--,--.--,--.--,--.--,--.--,--.--,--.--,48.3887748,-124.7105331,10UCU 73365 60925,1,1,0,3,10,--.--,--.--,,--.--,--.--,--.--,0,0,--.--,--.--,0,-5.8,40.7,0.9,-0.2,0,0.1,--.--,--.--,--.--,--.--,--.--,--.--,--.--,--.--,--.--,--.--,--.--,--.--,120.56,52.18,--.--,0,0,0.1,0.1,0.1,0,0,0,--.--,--.--,--.--
24:07.5,5.4,0.7,227,0,0,0,0,0,0,-0.1,-1.4,-2.3,-0.45,-0.361,0,41.3,0:00:47,41.4,0,--.--,278,--.--,45,0000:00:00,50,0,0,0,40,0,2,--.--,0,0,0,--.--,1.3,94,--.--,99,--.--,--:--:--,0,--.--,13:24:06,8/1/2022,--.--,--.--,--.--,--.--,--.--,--.--,--.--,--.--,--.--,--.--,--.--,--.--,0,0,0,0,0,0,0,0,0,0,0,0,0,FALSE,FALSE,FALSE,FALSE,FALSE,FALSE,FALSE,FALSE,FALSE,FALSE,FALSE,FALSE,--.--,--.--,--.--,--.--,--.--,--.--,--.--,--.--,48.3887748,-124.7105331,10UCU 73365 60925,1,1,0,3,10,--.--,--.--,,--.--,--.--,--.--,0,0,--.--,--.--,0,-5.6,40.5,0.7,0,-0.1,0.1,--.--,--.--,--.--,--.--,--.--,--.--,--.--,--.--,--.--,--.--,--.--,--.--,120.58,52.05,--.--,0,0,0.3,0.4,0.3,0,0,0,--.--,--.--,--.--
24:08.5,5,-7.4,226,0,0,0,0,0,0,0.3,-0.9,-1.8,-0.25,-0.244,0,41.3,0:00:48,41.2,0,--.--,278,--.--,36,0000:00:00,50,0,0,0,40,0,2,--.--,0,0,0,--.--,3.02,96,--.--,99,--.--,--:--:--,0,--.--,13:24:07,8/1/2022,--.--,--.--,--.--,--.--,--.--,--.--,--.--,--.--,--.--,--.--,--.--,--.--,0,0,0,0,0,0,0,0,0,0,0,0,0,FALSE,FALSE,FALSE,FALSE,FALSE,FALSE,FALSE,FALSE,FALSE,FALSE,FALSE,FALSE,--.--,--.--,--.--,--.--,--.--,--.--,--.--,--.--,48.3887748,-124.7105331,10UCU 73365 60925,1,1,0,3,10,--.--,--.--,,--.--,--.--,--.--,0,0,--.--,--.--,0,-5.5,40.3,0.1,0,-0.1,-0.3,--.--,--.--,--.--,--.--,--.--,--.--,--.--,--.--,--.--,--.--,--.--,--.--,120.58,51.94,--.--,0,0,0.3,0.4,0.6,0,0,0,--.--,--.--,--.--
24:09.5,0.5,-1.3,215,0,0,0,0,0,0,0.1,-1,-1.9,-0.29,-0.33,0,41.3,0:00:49,41.4,0,--.--,279,--.--,45,0000:00:00,50,0,0,0,40,0,2,--.--,0,0,0,--.--,0.78,97,--.--,99,--.--,--:--:--,0,--.--,13:24:08,8/1/2022,--.--,--.--,--.--,--.--,--.--,--.--,--.--,--.--,--.--,--.--,--.--,--.--,0,0,0,0,0,0,0,0,0,0,0,0,0,FALSE,FALSE,FALSE,FALSE,FALSE,FALSE,FALSE,FALSE,FALSE,FALSE,FALSE,FALSE,--.--,--.--,--.--,--.--,--.--,--.--,--.--,--.--,48.3887748,-124.7105331,10UCU 73365 60925,1,1,0,3,10,--.--,--.--,,--.--,--.--,--.--,0,0,--.--,--.--,0,-5.8,40.5,0.2,-0.4,0,-0.1,--.--,--.--,--.--,--.--,--.--,--.--,--.--,--.--,--.--,--.--,--.--,--.--,120.61,51.84,--.--,0,0,0.1,0.1,0.1,0,0,0,--.--,--.--,--.--
24:10.5,-6,4.5,214,0,0,0,0,0,0,0.2,-1.5,-2.5,-0.49,-0.675,0,41.3,0:00:50,41.4,0,--.--,279,--.--,68,0000:00:00,50,0,0,0,40,0,2,--.--,0,0,0,--.--,4.62,98,--.--,99,--.--,--:--:--,0,--.--,13:24:09,8/1/2022,--.--,--.--,--.--,--.--,--.--,--.--,--.--,--.--,--.--,--.--,--.--,--.--,0,0,0,0,0,0,0,0,0,0,0,0,0,FALSE,FALSE,FALSE,FALSE,FALSE,FALSE,FALSE,FALSE,FALSE,FALSE,FALSE,FALSE,--.--,--.--,--.--,--.--,--.--,--.--,--.--,--.--,48.3887748,-124.7105331,10UCU 73365 60925,1,1,0,3,10,--.--,--.--,,--.--,--.--,--.--,0,0,--.--,--.--,0,-6.1,40.4,0.8,-0.8,-0.1,-0.2,--.--,--.--,--.--,--.--,--.--,--.--,--.--,--.--,--.--,--.--,--.--,--.--,120.61,51.73,--.--,0,0,0.2,0.2,0.1,0,0,0,--.--,--.--,--.--
24:11.5,-5.3,4.4,216,0,0,0,0,0,0,0.3,-1.3,-2.2,-0.41,-0.539,0,41.3,0:00:51,36.8,0,--.--,280,--.--,63,0000:00:00,50,0,0,0,40,0,2,--.--,0,0,0,--.--,2.76,100,--.--,99,--.--,--:--:--,0,--.--,13:24:10,8/1/2022,--.--,--.--,--.--,--.--,--.--,--.--,--.--,--.--,--.--,--.--,--.--,--.--,0,0,0,0,0,0,0,0,0,0,0,0,0,FALSE,FALSE,FALSE,FALSE,FALSE,FALSE,FALSE,FALSE,FALSE,FALSE,FALSE,FALSE,--.--,--.--,--.--,--.--,--.--,--.--,--.--,--.--,48.3887786,-124.7105941,10UCU 73361 60926,1,1,0,3,10,--.--,--.--,,--.--,--.--,--.--,0,0,--.--,--.--,0,-5.8,35.8,0.6,-0.4,-1.1,-0.3,--.--,--.--,--.--,--.--,--.--,--.--,--.--,--.--,--.--,--.--,--.--,--.--,120.63,51.66,--.--,0,0,0.2,0.2,0.1,0,0,0,--.--,--.--,--.--
24:12.5,2.4,1.5,221,0,0,0,0,0,0,0.1,-0.7,-1.6,-0.23,-0.191,0,48.2,0:00:52,30.8,0,--.--,280,--.--,44,0000:00:00,50,0,0,0,40,0,2,--.--,0,0,0,--.--,12.05,100,--.--,99,--.--,--:--:--,0,--.--,13:24:11,8/1/2022,--.--,--.--,--.--,--.--,--.--,--.--,--.--,--.--,--.--,--.--,--.--,--.--,0,0,0,0,0,0,0,0,0,0,0,0,0,FALSE,FALSE,FALSE,FALSE,FALSE,FALSE,FALSE,FALSE,FALSE,FALSE,FALSE,FALSE,--.--,--.--,--.--,--.--,--.--,--.--,--.--,--.--,48.3887825,-124.7106018,10UCU 73360 60926,1,1,0,3,10,--.--,--.--,,--.--,--.--,--.--,0,0,--.--,--.--,0,-4.8,29.9,0,-0.5,-1.9,-0.1,--.--,--.--,--.--,--.--,--.--,--.--,--.--,--.--,--.--,--.--,--.--,--.--,120.63,51.53,--.--,0,0,0.5,0.4,0.4,0,0,0,--.--,--.--,--.--
24:13.5,6.7,-7.7,217,0,0,0,0,0,0,0.1,-0.5,-1.4,-0.15,-0.085,0,54.9,0:00:53,27.1,0,--.--,280,--.--,43,0000:00:00,50,0,0,0,40,0,2,--.--,0,0,0,--.--,12.35,103,--.--,99,--.--,--:--:--,0,--.--,13:24:12,8/1/2022,--.--,--.--,--.--,--.--,--.--,--.--,--.--,--.--,--.--,--.--,--.--,--.--,0,0,0,0,0,0,0,0,0,0,0,0,0,FALSE,FALSE,FALSE,FALSE,FALSE,FALSE,FALSE,FALSE,FALSE,FALSE,FALSE,FALSE,--.--,--.--,--.--,--.--,--.--,--.--,--.--,--.--,48.3887825,-124.7106018,10UCU 73360 60926,1,1,0,3,10,--.--,--.--,,--.--,--.--,--.--,0,0,--.--,--.--,0,-4.3,26.2,-0.8,-0.5,-2.2,-0.1,--.--,--.--,--.--,--.--,--.--,--.--,--.--,--.--,--.--,--.--,--.--,--.--,120.65,51.46,--.--,0,0,0.5,0.4,0.4,0,0,0,--.--,--.--,--.--
24:14.5,6.6,-10.3,226,0,0,0,0,0,0,0.2,-0.1,-1,-0.05,0.11,0,54.9,0:00:54,25.1,0,--.--,279,--.--,26,0000:00:00,50,0,0,0,40,0,2,--.--,0,0,0,--.--,11.61,107,--.--,99,--.--,--:--:--,0,--.--,13:24:13,8/1/2022,--.--,--.--,--.--,--.--,--.--,--.--,--.--,--.--,--.--,--.--,--.--,--.--,0,0,0,0,0,0,0,0,0,0,0,0,0,FALSE,FALSE,FALSE,FALSE,FALSE,FALSE,FALSE,FALSE,FALSE,FALSE,FALSE,FALSE,--.--,--.--,--.--,--.--,--.--,--.--,--.--,--.--,48.3887825,-124.7106018,10UCU 73360 60926,1,1,0,3,10,--.--,--.--,,--.--,--.--,--.--,0,0,--.--,--.--,0,-3.7,24.3,-1.1,0.2,-0.9,-0.2,--.--,--.--,--.--,--.--,--.--,--.--,--.--,--.--,--.--,--.--,--.--,--.--,120.67,51.37,--.--,0,0,1.2,0.9,0.4,0,0,0,--.--,--.--,--.--
24:15.5,1.1,-1.2,229,0,0,0,0,0,0,0,-0.7,-1.6,-0.22,-0.248,0,54.9,0:00:55,25.1,0,--.--,278,--.--,46,0000:00:00,50,0,0,0,40,0,2,--.--,0,0,0,--.--,4.6,109,--.--,99,--.--,--:--:--,0,--.--,13:24:14,8/1/2022,--.--,--.--,--.--,--.--,--.--,--.--,--.--,--.--,--.--,--.--,--.--,--.--,0,0,0,0,0,0,0,0,0,0,0,0,0,FALSE,FALSE,FALSE,FALSE,FALSE,FALSE,FALSE,FALSE,FALSE,FALSE,FALSE,FALSE,--.--,--.--,--.--,--.--,--.--,--.--,--.--,--.--,48.3887825,-124.7106018,10UCU 73360 60926,1,1,0,3,10,--.--,--.--,,--.--,--.--,--.--,0,0,--.--,--.--,0,-3,24.3,-0.7,0.1,0,0,--.--,--.--,--.--,--.--,--.--,--.--,--.--,--.--,--.--,--.--,--.--,--.--,120.67,51.28,--.--,0,0,0.7,0.5,0.3,0,0,0,--.--,--.--,--.--
24:16.5,-11.1,9.5,227,0,0,0,0,0,0,-0.1,-1.5,-2.5,-0.47,-0.716,0,54.9,0:00:56,25,0,--.--,278,--.--,78,0000:00:00,50,0,0,0,40,0,2,--.--,0,0,0,--.--,24.87,111,--.--,99,--.--,--:--:--,0,--.--,13:24:15,8/1/2022,--.--,--.--,--.--,--.--,--.--,--.--,--.--,--.--,--.--,--.--,--.--,--.--,0,0,0,0,0,0,0,0,0,0,0,0,0,FALSE,FALSE,FALSE,FALSE,FALSE,FALSE,FALSE,FALSE,FALSE,FALSE,FALSE,FALSE,--.--,--.--,--.--,--.--,--.--,--.--,--.--,--.--,48.3887825,-124.7106018,10UCU 73360 60926,1,1,0,3,10,--.--,--.--,,--.--,--.--,--.--,0,0,--.--,--.--,0,-3,24.3,0.2,-0.4,-0.1,0.1,--.--,--.--,--.--,--.--,--.--,--.--,--.--,--.--,--.--,--.--,--.--,--.--,120.69,51.19,--.--,0,0,1.5,0.8,0.6,0,0,0,--.--,--.--,--.--
24:17.5,-7.4,1.4,226,0,0,0,0,0,0,0.3,-1,-1.9,-0.31,-0.484,0,54.9,0:00:57,24.4,0,--.--,278,--.--,61,0000:00:00,50,0,0,0,40,0,2,--.--,0,0,0,--.--,14.7,118,--.--,99,--.--,--:--:--,0,--.--,13:24:16,8/1/2022,--.--,--.--,--.--,--.--,--.--,--.--,--.--,--.--,--.--,--.--,--.--,--.--,0,0,0,0,0,0,0,0,0,0,0,0,0,FALSE,FALSE,FALSE,FALSE,FALSE,FALSE,FALSE,FALSE,FALSE,FALSE,FALSE,FALSE,--.--,--.--,--.--,--.--,--.--,--.--,--.--,--.--,48.3887825,-124.7106018,10UCU 73360 60926,1,1,0,3,10,--.--,--.--,,--.--,--.--,--.--,0,0,--.--,--.--,0,-2.9,23.7,-0.3,0.1,-0.3,-0.3,--.--,--.--,--.--,--.--,--.--,--.--,--.--,--.--,--.--,--.--,--.--,--.--,120.69,51.1,--.--,0,0,0.6,0.6,0.4,0,0,0,--.--,--.--,--.--
24:18.5,11.9,-8.1,228,0,0,0,0,0,0,0.1,0.2,-0.8,0.04,0.03,0,54.9,0:00:58,24.9,0,--.--,276,--.--,30,0000:00:00,50,0,0,0,40,0,2,--.--,0,0,0,--.--,5.71,119,--.--,99,--.--,--:--:--,0,--.--,13:24:17,8/1/2022,--.--,--.--,--.--,--.--,--.--,--.--,--.--,--.--,--.--,--.--,--.--,--.--,0,0,0,0,0,0,0,0,0,0,0,0,0,FALSE,FALSE,FALSE,FALSE,FALSE,FALSE,FALSE,FALSE,FALSE,FALSE,FALSE,FALSE,--.--,--.--,--.--,--.--,--.--,--.--,--.--,--.--,48.3887825,-124.7106018,10UCU 73360 60926,1,1,0,3,10,--.--,--.--,,--.--,--.--,--.--,0,0,--.--,--.--,0,-2.2,24.3,-1.6,0.5,0.9,-0.1,--.--,--.--,--.--,--.--,--.--,--.--,--.--,--.--,--.--,--.--,--.--,--.--,120.7,51.04,--.--,0,0,0.3,0.4,0.3,0,0,0,--.--,--.--,--.--
24:19.5,4.8,-3.7,229,0,0,0,0,0,0,0.1,-0.1,-1,-0.04,-0.044,0,54.9,0:00:59,25.6,0,--.--,275,--.--,46,0000:00:00,50,0,0,0,40,0,2,--.--,0,0,0,--.--,13.37,121,--.--,99,--.--,--:--:--,0,--.--,13:24:18,8/1/2022,--.--,--.--,--.--,--.--,--.--,--.--,--.--,--.--,--.--,--.--,--.--,--.--,0,0,0,0,0,0,0,0,0,0,0,0,0,FALSE,FALSE,FALSE,FALSE,FALSE,FALSE,FALSE,FALSE,FALSE,FALSE,FALSE,FALSE,--.--,--.--,--.--,--.--,--.--,--.--,--.--,--.--,48.3887825,-124.7106018,10UCU 73360 60926,1,1,0,3,10,--.--,--.--,,--.--,--.--,--.--,0,0,--.--,--.--,0,-2.1,25,-1.2,0.5,1.2,-0.1,--.--,--.--,--.--,--.--,--.--,--.--,--.--,--.--,--.--,--.--,--.--,--.--,120.72,50.97,--.--,0,0,1.1,0.7,0.3,0,0,0,--.--,--.--,--.--
24:20.5,-0.6,1.3,225,0,0,0,0,0,0,0.2,-0.1,-1,-0.05,-0.069,0,54.9,0:01:00,25.5,0,--.--,276,--.--,47,0000:00:00,50,0,0,0,40,0,2,--.--,0,0,0,--.--,10.32,123,--.--,99,--.--,--:--:--,0,--.--,13:24:19,8/1/2022,--.--,--.--,--.--,--.--,--.--,--.--,--.--,--.--,--.--,--.--,--.--,--.--,0,0,0,0,0,0,0,0,0,0,0,0,0,FALSE,FALSE,FALSE,FALSE,FALSE,FALSE,FALSE,FALSE,FALSE,FALSE,FALSE,FALSE,--.--,--.--,--.--,--.--,--.--,--.--,--.--,--.--,48.3887825,-124.7106018,10UCU 73360 60926,1,1,0,3,10,--.--,--.--,,--.--,--.--,--.--,0,0,--.--,--.--,0,-2.3,24.8,-1.1,-0.4,0.2,-0.2,--.--,--.--,--.--,--.--,--.--,--.--,--.--,--.--,--.--,--.--,--.--,--.--,120.72,50.88,--.--,0,0,0.5,0.4,0.4,0,0,0,--.--,--.--,--.--
24:21.5,-4.7,2.5,226,0,0,0,0,0,0,0.2,-0.5,-1.4,-0.16,-0.288,0,54.9,0:01:01,25,0,--.--,278,--.--,61,0000:00:00,50,0,0,0,40,0,2,--.--,0,0,0,--.--,12.56,126,--.--,99,--.--,--:--:--,0,--.--,13:24:20,8/1/2022,--.--,--.--,--.--,--.--,--.--,--.--,--.--,--.--,--.--,--.--,--.--,--.--,0,0,0,0,0,0,0,0,0,0,0,0,0,FALSE,FALSE,FALSE,FALSE,FALSE,FALSE,FALSE,FALSE,FALSE,FALSE,FALSE,FALSE,--.--,--.--,--.--,--.--,--.--,--.--,--.--,--.--,48.3887825,-124.7106018,10UCU 73360 60926,1,1,0,3,10,--.--,--.--,,--.--,--.--,--.--,0,0,--.--,--.--,0,-3.1,24.3,-0.8,-0.8,0.2,-0.2,--.--,--.--,--.--,--.--,--.--,--.--,--.--,--.--,--.--,--.--,--.--,--.--,120.72,50.83,--.--,0,0,0.6,0.6,0.4,0,0,0,--.--,--.--,--.--
24:22.5,-1.2,-4.1,225,0,0,0,0,0,0,0.2,-0.2,-1.1,-0.06,-0.096,0,54.9,0:01:02,24.9,0,--.--,279,--.--,52,0000:00:00,50,0,0,0,40,0,2,--.--,0,0,0,--.--,1.49,129,--.--,99,--.--,--:--:--,0,--.--,13:24:21,8/1/2022,--.--,--.--,--.--,--.--,--.--,--.--,--.--,--.--,--.--,--.--,--.--,--.--,0,0,0,0,0,0,0,0,0,0,0,0,0,FALSE,FALSE,FALSE,FALSE,FALSE,FALSE,FALSE,FALSE,FALSE,FALSE,FALSE,FALSE,--.--,--.--,--.--,--.--,--.--,--.--,--.--,--.--,48.3887825,-124.7106018,10UCU 73360 60926,1,1,0,3,10,--.--,--.--,,--.--,--.--,--.--,0,0,--.--,--.--,0,-3.5,24.1,-1.1,-0.6,0.4,-0.1,--.--,--.--,--.--,--.--,--.--,--.--,--.--,--.--,--.--,--.--,--.--,--.--,120.74,50.79,--.--,0,0,0.5,0.4,0.3,0,0,0,--.--,--.--,--.--
24:23.5,7.4,-3,225,0,0,0,0,0,0,-0.8,-0.8,-1.7,-0.25,-0.25,0,54.9,0:01:03,25.3,0,--.--,277,--.--,30,0000:00:00,50,0,0,0,40,0,2,--.--,0,0,0,--.--,6.18,130,--.--,99,--.--,--:--:--,0,--.--,13:24:22,8/1/2022,--.--,--.--,--.--,--.--,--.--,--.--,--.--,--.--,--.--,--.--,--.--,--.--,0,0,0,0,0,0,0,0,0,0,0,0,0,FALSE,FALSE,FALSE,FALSE,FALSE,FALSE,FALSE,FALSE,FALSE,FALSE,FALSE,FALSE,--.--,--.--,--.--,--.--,--.--,--.--,--.--,--.--,48.3887825,-124.7106018,10UCU 73360 60926,1,1,0,3,10,--.--,--.--,,--.--,--.--,--.--,0,0,--.--,--.--,0,-2.7,24.6,-0.4,0.3,0.8,0.8,--.--,--.--,--.--,--.--,--.--,--.--,--.--,--.--,--.--,--.--,--.--,--.--,120.76,50.74,--.--,0,0,0.3,0.3,0.1,0,0,0,--.--,--.--,--.--
24:24.5,1.3,-0.1,231,0,0,0,0,0,0,-0.6,-1.5,-2.4,-0.46,-0.45,0,54.9,0:01:04,25.2,0,--.--,276,--.--,31,0000:00:00,50,0,0,0,40,0,2,--.--,0,0,0,--.--,4.93,132,--.--,99,--.--,--:--:--,0,--.--,13:24:23,8/1/2022,--.--,--.--,--.--,--.--,--.--,--.--,--.--,--.--,--.--,--.--,--.--,--.--,0,0,0,0,0,0,0,0,0,0,0,0,0,FALSE,FALSE,FALSE,FALSE,FALSE,FALSE,FALSE,FALSE,FALSE,FALSE,FALSE,FALSE,--.--,--.--,--.--,--.--,--.--,--.--,--.--,--.--,48.3887825,-124.7106018,10UCU 73360 60926,1,1,0,3,10,--.--,--.--,,--.--,--.--,--.--,0,0,--.--,--.--,0,-2.2,24.5,0.2,0.7,0.4,0.6,--.--,--.--,--.--,--.--,--.--,--.--,--.--,--.--,--.--,--.--,--.--,--.--,120.76,50.7,--.--,0,0,0.2,0.2,0.1,0,0,0,--.--,--.--,--.--
24:25.5,-0.1,0.9,240,0,0,0,0,0,0,0,-1.7,-2.6,-0.52,-0.52,0,54.9,0:01:05,25,0,--.--,276,--.--,50,0000:00:00,50,0,0,0,40,0,2,--.--,0,0,0,--.--,3.6,133,--.--,99,--.--,--:--:--,0,--.--,13:24:24,8/1/2022,--.--,--.--,--.--,--.--,--.--,--.--,--.--,--.--,--.--,--.--,--.--,--.--,0,0,0,0,0,0,0,0,0,0,0,0,0,FALSE,FALSE,FALSE,FALSE,FALSE,FALSE,FALSE,FALSE,FALSE,FALSE,FALSE,FALSE,--.--,--.--,--.--,--.--,--.--,--.--,--.--,--.--,48.3887825,-124.7106018,10UCU 73360 60926,1,1,0,3,10,--.--,--.--,,--.--,--.--,--.--,0,0,--.--,--.--,0,-2.1,24.4,0.3,0.4,0.4,0.1,--.--,--.--,--.--,--.--,--.--,--.--,--.--,--.--,--.--,--.--,--.--,--.--,120.78,50.67,--.--,0,0,0.3,0.5,0.2,0,0,0,--.--,--.--,--.--
24:26.5,1.3,-0.3,198,0,0,0,0,0,0,0.3,-1.7,-2.6,-0.53,-0.526,0,54.9,0:01:06,25.1,0,--.--,277,--.--,46,0000:00:00,50,0,0,0,40,0,2,--.--,0,0,0,--.--,11.73,136,--.--,99,--.--,--:--:--,0,--.--,13:24:25,8/1/2022,--.--,--.--,--.--,--.--,--.--,--.--,--.--,--.--,--.--,--.--,--.--,--.--,0,0,0,0,0,0,0,0,0,0,0,0,0,FALSE,FALSE,FALSE,FALSE,FALSE,FALSE,FALSE,FALSE,FALSE,FALSE,FALSE,FALSE,--.--,--.--,--.--,--.--,--.--,--.--,--.--,--.--,48.3887825,-124.7106018,10UCU 73360 60926,1,1,0,3,10,--.--,--.--,,--.--,--.--,--.--,0,0,--.--,--.--,0,-2.6,24.4,0.4,-0.6,0.1,-0.3,--.--,--.--,--.--,--.--,--.--,--.--,--.--,--.--,--.--,--.--,--.--,--.--,120.78,50.65,--.--,0,0,0.6,0.5,0.4,0,0,0,--.--,--.--,--.--
24:27.5,3.4,0.2,171,0,0,0,0,0,0,0.3,-1.9,-2.9,-0.6,-0.668,0,54.9,0:01:07,24.9,0,--.--,280,--.--,53,0000:00:00,50,0,0,0,40,0,2,--.--,0,0,0,--.--,12.7,140,--.--,99,--.--,--:--:--,0,--.--,13:24:26,8/1/2022,--.--,--.--,--.--,--.--,--.--,--.--,--.--,--.--,--.--,--.--,--.--,--.--,0,0,0,0,0,0,0,0,0,0,0,0,0,FALSE,FALSE,FALSE,FALSE,FALSE,FALSE,FALSE,FALSE,FALSE,FALSE,FALSE,FALSE,--.--,--.--,--.--,--.--,--.--,--.--,--.--,--.--,48.3887825,-124.7106018,10UCU 73360 60926,1,1,0,3,10,--.--,--.--,,--.--,--.--,--.--,0,0,--.--,--.--,0,-4,24.1,0.6,-2,0.1,-0.3,--.--,--.--,--.--,--.--,--.--,--.--,--.--,--.--,--.--,--.--,--.--,--.--,120.78,50.61,--.--,0,0,0.5,0.4,0.3,0,0,0,--.--,--.--,--.--
24:28.5,-3.4,-2.9,164,0,0,0,0,0,0,-0.1,-2.3,-3.2,-0.71,-0.735,0,54.9,0:01:08,25,0,--.--,283,--.--,58,0000:00:00,50,0,0,0,40,0,2,--.--,0,0,0,--.--,13.47,143,--.--,99,--.--,--:--:--,0,--.--,13:24:27,8/1/2022,--.--,--.--,--.--,--.--,--.--,--.--,--.--,--.--,--.--,--.--,--.--,--.--,0,0,0,0,0,0,0,0,0,0,0,0,0,FALSE,FALSE,FALSE,FALSE,FALSE,FALSE,FALSE,FALSE,FALSE,FALSE,FALSE,FALSE,--.--,--.--,--.--,--.--,--.--,--.--,--.--,--.--,48.3887825,-124.7106018,10UCU 73360 60926,1,1,0,3,10,--.--,--.--,,--.--,--.--,--.--,0,0,--.--,--.--,0,-5.2,23.9,1,-2.6,-0.3,0.1,--.--,--.--,--.--,--.--,--.--,--.--,--.--,--.--,--.--,--.--,--.--,--.--,120.79,50.58,--.--,0,0,0.6,0.5,0.5,0,0,0,--.--,--.--,--.--
24:29.5,-3.8,0.4,161,0,0,0,0,0,0,-0.1,-2.2,-3.1,-0.68,-0.691,0,54.9,0:01:09,25.2,0,--.--,285,--.--,58,0000:00:00,50,0,0,0,40,0,2,--.--,0,0,0,--.--,12.77,148,--.--,99,--.--,--:--:--,0,--.--,13:24:28,8/1/2022,--.--,--.--,--.--,--.--,--.--,--.--,--.--,--.--,--.--,--.--,--.--,--.--,0,0,0,0,0,0,0,0,0,0,0,0,0,FALSE,FALSE,FALSE,FALSE,FALSE,FALSE,FALSE,FALSE,FALSE,FALSE,FALSE,FALSE,--.--,--.--,--.--,--.--,--.--,--.--,--.--,--.--,48.3887672,-124.7105865,10UCU 73361 60925,1,1,0,3,10,--.--,--.--,,--.--,--.--,--.--,0,0,--.--,--.--,0,-6.3,23.9,0.9,-2.2,-0.6,0.1,--.--,--.--,--.--,--.--,--.--,--.--,--.--,--.--,--.--,--.--,--.--,--.--,120.79,50.54,--.--,0,0,0.6,0.4,0.4,0,0,0,--.--,--.--,--.--
24:30.5,3.6,-6.1,161,0,0,0,0,0,0,0,-1.8,-2.7,-0.56,-0.449,0,54.9,0:01:10,26.7,0,--.--,288,--.--,41,0000:00:00,50,0,0,0,40,0,2,--.--,0,0,0,--.--,13.12,150,--.--,99,--.--,--:--:--,0,--.--,13:24:29,8/1/2022,--.--,--.--,--.--,--.--,--.--,--.--,--.--,--.--,--.--,--.--,--.--,--.--,0,0,0,0,0,0,0,0,0,0,0,0,0,FALSE,FALSE,FALSE,FALSE,FALSE,FALSE,FALSE,FALSE,FALSE,FALSE,FALSE,FALSE,--.--,--.--,--.--,--.--,--.--,--.--,--.--,--.--,48.3887672,-124.7105865,10UCU 73361 60925,1,1,0,3,10,--.--,--.--,,--.--,--.--,--.--,0,0,--.--,--.--,0,-8,24.9,0.5,-2,-0.5,0,--.--,--.--,--.--,--.--,--.--,--.--,--.--,--.--,--.--,--.--,--.--,--.--,120.79,50.49,--.--,0,0,0.5,0.4,0.4,0,0,0,--.--,--.--,--.--
24:31.5,9.7,-4.7,158,0,0,0,0,0,0,0,-1.5,-2.4,-0.47,-0.276,0,54.9,0:01:11,28.4,0,--.--,290,--.--,27,0000:00:00,50,0,0,0,40,0,2,--.--,0,0,0,--.--,16.08,155,--.--,99,--.--,--:--:--,0,--.--,13:24:30,8/1/2022,--.--,--.--,--.--,--.--,--.--,--.--,--.--,--.--,--.--,--.--,--.--,--.--,0,0,0,0,0,0,0,0,0,0,0,0,0,FALSE,FALSE,FALSE,FALSE,FALSE,FALSE,FALSE,FALSE,FALSE,FALSE,FALSE,FALSE,--.--,--.--,--.--,--.--,--.--,--.--,--.--,--.--,48.3887634,-124.7105865,10UCU 73361 60924,1,1,0,3,10,--.--,--.--,,--.--,--.--,--.--,0,0,--.--,--.--,0,-9.4,26.2,0.2,-1.6,-0.1,0,--.--,--.--,--.--,--.--,--.--,--.--,--.--,--.--,--.--,--.--,--.--,--.--,120.81,50.47,--.--,0,0,0.6,0.5,0.4,0,0,0,--.--,--.--,--.--
24:32.5,1.5,1.5,162,0,0,0,0,0,0,0,-2.1,-3,-0.63,-0.568,0,54.9,0:01:12,29.4,0,--.--,292,--.--,41,0000:00:00,50,0,0,0,40,0,2,--.--,0,0,0,--.--,16.82,160,--.--,98,--.--,--:--:--,0,--.--,13:24:31,8/1/2022,--.--,--.--,--.--,--.--,--.--,--.--,--.--,--.--,--.--,--.--,--.--,--.--,0,0,0,0,0,0,0,0,0,0,0,0,0,FALSE,FALSE,FALSE,FALSE,FALSE,FALSE,FALSE,FALSE,FALSE,FALSE,FALSE,FALSE,--.--,--.--,--.--,--.--,--.--,--.--,--.--,--.--,48.3887634,-124.7105865,10UCU 73361 60924,1,1,0,3,10,--.--,--.--,,--.--,--.--,--.--,0,0,--.--,--.--,0,-10.5,26.8,0.7,-1.7,-0.1,0,--.--,--.--,--.--,--.--,--.--,--.--,--.--,--.--,--.--,--.--,--.--,--.--,120.81,50.45,--.--,0,0,0.5,0.4,0.4,0,0,0,--.--,--.--,--.--
24:33.5,-2.7,3.7,194,0,0,0,0,0,0,0.3,-2.2,-3.1,-0.68,-0.706,0,61.5,0:01:13,29.9,0,--.--,293,--.--,41,0000:00:00,50,0,0,0,40,0,2,--.--,0,0,0,--.--,11.01,164,--.--,98,--.--,--:--:--,0,--.--,13:24:32,8/1/2022,--.--,--.--,--.--,--.--,--.--,--.--,--.--,--.--,--.--,--.--,--.--,--.--,0,0,0,0,0,0,0,0,0,0,0,0,0,FALSE,FALSE,FALSE,FALSE,FALSE,FALSE,FALSE,FALSE,FALSE,FALSE,FALSE,FALSE,--.--,--.--,--.--,--.--,--.--,--.--,--.--,--.--,48.3887557,-124.7105789,10UCU 73362 60923,1,1,0,3,10,--.--,--.--,,--.--,--.--,--.--,0,0,--.--,--.--,0,-11.3,27,0.9,-1.1,-0.5,-0.3,--.--,--.--,--.--,--.--,--.--,--.--,--.--,--.--,--.--,--.--,--.--,--.--,120.83,50.43,--.--,0,0,0.4,0.4,0.3,0,0,0,--.--,--.--,--.--
24:34.5,0.2,-2.1,196,0,0,0,0,0,0,0,-2.3,-3.2,-0.7,-0.719,0,61.5,0:01:14,30.8,0,--.--,294,--.--,47,0000:00:00,50,0,0,0,40,0,2,--.--,0,0,0,--.--,12.3,167,--.--,98,--.--,--:--:--,0,--.--,13:24:33,8/1/2022,--.--,--.--,--.--,--.--,--.--,--.--,--.--,--.--,--.--,--.--,--.--,--.--,0,0,0,0,0,0,0,0,0,0,0,0,0,FALSE,FALSE,FALSE,FALSE,FALSE,FALSE,FALSE,FALSE,FALSE,FALSE,FALSE,FALSE,--.--,--.--,--.--,--.--,--.--,--.--,--.--,--.--,48.3887557,-124.7105789,10UCU 73362 60923,1,1,0,3,10,--.--,--.--,,--.--,--.--,--.--,0,0,--.--,--.--,0,-12,27.7,0.9,-0.6,-0.3,0,--.--,--.--,--.--,--.--,--.--,--.--,--.--,--.--,--.--,--.--,--.--,--.--,120.83,50.4,--.--,0,0,0.7,0.4,0.4,0,0,0,--.--,--.--,--.--
24:35.5,1.2,-1.5,196,0,0,0,0,0,0,-0.4,-2.6,-3.5,-0.8,-0.78,0,61.5,0:01:15,31.5,0,--.--,293,--.--,43,0000:00:00,50,0,0,0,40,0,2,--.--,0,0,0,--.--,18.02,171,--.--,98,--.--,--:--:--,0,--.--,13:24:34,8/1/2022,--.--,--.--,--.--,--.--,--.--,--.--,--.--,--.--,--.--,--.--,--.--,--.--,0,0,0,0,0,0,0,0,0,0,0,0,0,FALSE,FALSE,FALSE,FALSE,FALSE,FALSE,FALSE,FALSE,FALSE,FALSE,FALSE,FALSE,--.--,--.--,--.--,--.--,--.--,--.--,--.--,--.--,48.3887557,-124.7105789,10UCU 73362 60923,1,1,0,3,10,--.--,--.--,,--.--,--.--,--.--,0,0,--.--,--.--,0,-12.1,28.4,1.2,0.1,0,0.4,--.--,--.--,--.--,--.--,--.--,--.--,--.--,--.--,--.--,--.--,--.--,--.--,120.83,50.38,--.--,0,0,0.7,0.6,0.6,0,0,0,--.--,--.--,--.--
24:36.5,-7.1,3.4,221,0,0,0,0,0,0,-0.1,-2.7,-3.6,-0.82,-0.86,0,61.5,0:01:16,31.6,0,--.--,292,--.--,52,0000:00:00,50,0,0,0,40,0,2,--.--,0,0,0,--.--,12.14,175,--.--,98,--.--,--:--:--,0,--.--,13:24:35,8/1/2022,--.--,--.--,--.--,--.--,--.--,--.--,--.--,--.--,--.--,--.--,--.--,--.--,0,0,0,0,0,0,0,0,0,0,0,0,0,FALSE,FALSE,FALSE,FALSE,FALSE,FALSE,FALSE,FALSE,FALSE,FALSE,FALSE,FALSE,--.--,--.--,--.--,--.--,--.--,--.--,--.--,--.--,48.3887557,-124.7105789,10UCU 73362 60923,1,1,0,3,10,--.--,--.--,,--.--,--.--,--.--,0,0,--.--,--.--,0,-11.4,28.9,1.3,1.3,0.1,0.1,--.--,--.--,--.--,--.--,--.--,--.--,--.--,--.--,--.--,--.--,--.--,--.--,120.85,50.36,--.--,0,0,0.4,0.4,0.4,0,0,0,--.--,--.--,--.--
24:37.5,4.7,-3.1,218,0,0,0,0,0,0,0,-2.3,-3.2,-0.71,-0.633,0,61.5,0:01:17,31.7,0,--.--,290,--.--,35,0000:00:00,50,0,0,0,40,0,2,--.--,0,0,0,--.--,12.81,179,--.--,98,--.--,--:--:--,0,--.--,13:24:36,8/1/2022,--.--,--.--,--.--,--.--,--.--,--.--,--.--,--.--,--.--,--.--,--.--,--.--,0,0,0,0,0,0,0,0,0,0,0,0,0,FALSE,FALSE,FALSE,FALSE,FALSE,FALSE,FALSE,FALSE,FALSE,FALSE,FALSE,FALSE,--.--,--.--,--.--,--.--,--.--,--.--,--.--,--.--,48.3887557,-124.7105789,10UCU 73362 60923,1,1,0,3,10,--.--,--.--,,--.--,--.--,--.--,0,0,--.--,--.--,0,-10.7,29.2,1,1.6,0.3,0,--.--,--.--,--.--,--.--,--.--,--.--,--.--,--.--,--.--,--.--,--.--,--.--,120.83,50.32,--.--,0,0,0.5,0.5,0.4,0,0,0,--.--,--.--,--.--
