Timestamp,roll,pitch,heading,rollRate,pitchRate,yawRate,groundSpeed,airSpeed,airSpeedSetpoint,climbRate,altitudeRelative,altitudeAMSL,altitudeTuning,altitudeTuningSetpoint,xTrackError,flightDistance,flightTime,distanceToHome,missionItemIndex,headingToNextWP,headingToHome,distanceToGCS,throttlePct,hobbs,apmSubInfo.cameraTilt,apmSubInfo.tetherTurns,apmSubInfo.lights1,apmSubInfo.lights2,apmSubInfo.pilotGain,apmSubInfo.inputHold,apmSubInfo.rollPitchToggle,apmSubInfo.rangefinderDistance,battery0.id,battery0.batteryFunction,battery0.batteryType,battery0.voltage,battery0.current,battery0.mahConsumed,battery0.temperature,battery0.percentRemaining,battery0.timeRemaining,battery0.timeRemainingStr,battery0.chargeState,battery0.instantPower,clock.currentTime,clock.currentDate,distanceSensor.rotationNone,distanceSensor.rotationYaw45,distanceSensor.rotationYaw90,distanceSensor.rotationYaw135,distanceSensor.rotationYaw180,distanceSensor.rotationYaw225,distanceSensor.rotationYaw270,distanceSensor.rotationYaw315,distanceSensor.rotationPitch90,distanceSensor.rotationPitch270,distanceSensor.minDistance,distanceSensor.maxDistance,escStatus.index,escStatus.rpm1,escStatus.rpm2,escStatus.rpm3,escStatus.rpm4,escStatus.current1,escStatus.current2,escStatus.current3,escStatus.current4,escStatus.voltage1,escStatus.voltage2,escStatus.voltage3,escStatus.voltage4,estimatorStatus.goodAttitudeEsimate,estimatorStatus.goodHorizVelEstimate,estimatorStatus.goodVertVelEstimate,estimatorStatus.goodHorizPosRelEstimate,estimatorStatus.goodHorizPosAbsEstimate,estimatorStatus.goodVertPosAbsEstimate,estimatorStatus.goodVertPosAGLEstimate,estimatorStatus.goodConstPosModeEstimate,estimatorStatus.goodPredHorizPosRelEstimate,estimatorStatus.goodPredHorizPosAbsEstimate,estimatorStatus.gpsGlitch,estimatorStatus.accelError,estimatorStatus.velRatio,estimatorStatus.horizPosRatio,estimatorStatus.vertPosRatio,estimatorStatus.magRatio,estimatorStatus.haglRatio,estimatorStatus.tasRatio,estimatorStatus.horizPosAccuracy,estimatorStatus.vertPosAccuracy,gps.lat,gps.lon,gps.mgrs,gps.hdop,gps.vdop,gps.courseOverGround,gps.lock,gps.count,gps2.lat,gps2.lon,gps2.mgrs,gps2.hdop,gps2.vdop,gps2.courseOverGround,gps2.lock,gps2.count,hygrometer.temperature,hygrometer.humidity,hygrometer.hygrometerid,localPosition.x,localPosition.y,localPosition.z,localPosition.vx,localPosition.vy,localPosition.vz,localPositionSetpoint.x,localPositionSetpoint.y,localPositionSetpoint.z,localPositionSetpoint.vx,localPositionSetpoint.vy,localPositionSetpoint.vz,setpoint.roll,setpoint.pitch,setpoint.yaw,setpoint.rollRate,setpoint.pitchRate,setpoint.yawRate,temperature.temperature1,temperature.temperature2,temperature.temperature3,terrain.blocksPending,terrain.blocksLoaded,vibration.xAxis,vibration.yAxis,vibration.zAxis,vibration.clipCount1,vibration.clipCount2,vibration.clipCount3,wind.direction,wind.speed,wind.verticalSpeed
2022-08-15 10:49:12.738,3.7,6.9,13,0.0,0.0,0.0,0.0,0.0,0.000,-0.0,0.0,2.3,-0.050,-0.151,0.000,0.0,00:00:00,--.--,0,--.--,--.--,--.--,38,0000:00:00,0,1,0,0,30,0,2,--.--,0,0,0,--.--,3.54,3040,--.--,80,--.--,--:--:--,0,--.--,10:49:12,8/15/2022,--.--,--.--,--.--,--.--,--.--,--.--,--.--,--.--,--.--,--.--,--.--,--.--,0,0.000,0.000,0.000,0.000,0.000,0.000,0.000,0.000,0.000,0.000,0.000,0.000,false,false,false,false,false,false,false,false,false,false,false,false,--.--,--.--,--.--,--.--,--.--,--.--,--.--,--.--,0.0000000,0.0000000,31NAA 66021 00000,100.0,0.0,0.0,1,0,--.--,--.--,,--.--,--.--,--.--,0,0,--.--,--.--,0,--.--,--.--,--.--,--.--,--.--,--.--,--.--,--.--,--.--,--.--,--.--,--.--,--.--,--.--,--.--,--.--,--.--,--.--,111.99,63.07,--.--,0,0,0.4,0.4,0.3,0,1,0,--.--,--.--,--.--
2022-08-15 10:49:13.743,1.4,-1.4,12,0.0,0.0,0.0,0.0,0.0,0.000,0.0,-0.1,2.2,-0.080,-0.113,0.000,0.0,00:00:00,--.--,0,--.--,--.--,--.--,43,0000:00:00,0,1,0,0,30,0,2,--.--,0,0,0,--.--,5.07,3041,--.--,80,--.--,--:--:--,0,--.--,10:49:13,8/15/2022,--.--,--.--,--.--,--.--,--.--,--.--,--.--,--.--,--.--,--.--,--.--,--.--,0,0.000,0.000,0.000,0.000,0.000,0.000,0.000,0.000,0.000,0.000,0.000,0.000,false,false,false,false,false,false,false,false,false,false,false,false,--.--,--.--,--.--,--.--,--.--,--.--,--.--,--.--,0.0000000,0.0000000,31NAA 66021 00000,100.0,0.0,0.0,1,0,--.--,--.--,,--.--,--.--,--.--,0,0,--.--,--.--,0,--.--,--.--,--.--,--.--,--.--,--.--,--.--,--.--,--.--,--.--,--.--,--.--,--.--,--.--,--.--,--.--,--.--,--.--,111.99,62.76,--.--,0,0,0.3,0.4,0.2,0,1,0,--.--,--.--,--.--
2022-08-15 10:49:14.744,11.3,-9.0,29,0.0,0.0,0.0,0.0,0.0,0.000,-0.2,-0.2,2.1,-0.100,-0.086,0.000,0.0,00:00:01,--.--,0,--.--,--.--,--.--,45,0000:00:00,0,1,0,0,30,0,2,--.--,0,0,0,--.--,5.39,3043,--.--,80,--.--,--:--:--,0,--.--,10:49:14,8/15/2022,--.--,--.--,--.--,--.--,--.--,--.--,--.--,--.--,--.--,--.--,--.--,--.--,0,0.000,0.000,0.000,0.000,0.000,0.000,0.000,0.000,0.000,0.000,0.000,0.000,false,false,false,false,false,false,false,false,false,false,false,false,--.--,--.--,--.--,--.--,--.--,--.--,--.--,--.--,0.0000000,0.0000000,31NAA 66021 00000,100.0,0.0,0.0,1,0,--.--,--.--,,--.--,--.--,--.--,0,0,--.--,--.--,0,--.--,--.--,--.--,--.--,--.--,--.--,--.--,--.--,--.--,--.--,--.--,--.--,--.--,--.--,--.--,--.--,--.--,--.--,111.99,62.44,--.--,0,0,0.5,0.3,0.5,0,1,0,--.--,--.--,--.--
2022-08-15 10:49:15.760,0.1,-1.6,35,0.0,0.0,0.0,0.0,0.0,0.000,0.0,-0.5,1.8,-0.200,-0.314,0.000,0.0,00:00:02,--.--,0,--.--,--.--,--.--,53,0000:00:00,0,1,0,0,30,0,2,--.--,0,0,0,--.--,8.15,3045,--.--,80,--.--,--:--:--,0,--.--,10:49:15,8/15/2022,--.--,--.--,--.--,--.--,--.--,--.--,--.--,--.--,--.--,--.--,--.--,--.--,0,0.000,0.000,0.000,0.000,0.000,0.000,0.000,0.000,0.000,0.000,0.000,0.000,false,false,false,false,false,false,false,false,false,false,false,false,--.--,--.--,--.--,--.--,--.--,--.--,--.--,--.--,0.0000000,0.0000000,31NAA 66021 00000,100.0,0.0,0.0,1,0,--.--,--.--,,--.--,--.--,--.--,0,0,--.--,--.--,0,--.--,--.--,--.--,--.--,--.--,--.--,--.--,--.--,--.--,--.--,--.--,--.--,--.--,--.--,--.--,--.--,--.--,--.--,111.99,62.11,--.--,0,0,0.3,0.4,0.3,0,1,0,--.--,--.--,--.--
2022-08-15 10:49:16.753,-2.3,0.3,53,0.0,0.0,0.0,0.0,0.0,0.000,0.3,-0.3,2.0,-0.130,-0.191,0.000,0.0,00:00:03,--.--,0,--.--,--.--,--.--,41,0000:00:00,0,1,0,0,30,0,2,--.--,0,0,0,--.--,1.55,3046,--.--,80,--.--,--:--:--,0,--.--,10:49:16,8/15/2022,--.--,--.--,--.--,--.--,--.--,--.--,--.--,--.--,--.--,--.--,--.--,--.--,0,0.000,0.000,0.000,0.000,0.000,0.000,0.000,0.000,0.000,0.000,0.000,0.000,false,false,false,false,false,false,false,false,false,false,false,false,--.--,--.--,--.--,--.--,--.--,--.--,--.--,--.--,0.0000000,0.0000000,31NAA 66021 00000,100.0,0.0,0.0,1,0,--.--,--.--,,--.--,--.--,--.--,0,0,--.--,--.--,0,--.--,--.--,--.--,--.--,--.--,--.--,--.--,--.--,--.--,--.--,--.--,--.--,--.--,--.--,--.--,--.--,--.--,--.--,111.99,61.74,--.--,0,0,0.1,0.1,0.1,0,1,0,--.--,--.--,--.--
2022-08-15 10:49:17.747,1.5,-0.8,60,0.0,0.0,0.0,0.0,0.0,0.000,-0.1,-0.4,1.9,-0.160,-0.238,0.000,0.0,00:00:04,--.--,0,--.--,--.--,--.--,51,0000:00:00,0,1,0,0,30,0,2,--.--,0,0,0,--.--,5.94,3047,--.--,80,--.--,--:--:--,0,--.--,10:49:17,8/15/2022,--.--,--.--,--.--,--.--,--.--,--.--,--.--,--.--,--.--,--.--,--.--,--.--,0,0.000,0.000,0.000,0.000,0.000,0.000,0.000,0.000,0.000,0.000,0.000,0.000,false,false,false,false,false,false,false,false,false,false,false,false,--.--,--.--,--.--,--.--,--.--,--.--,--.--,--.--,0.0000000,0.0000000,31NAA 66021 00000,100.0,0.0,0.0,1,0,--.--,--.--,,--.--,--.--,--.--,0,0,--.--,--.--,0,--.--,--.--,--.--,--.--,--.--,--.--,--.--,--.--,--.--,--.--,--.--,--.--,--.--,--.--,--.--,--.--,--.--,--.--,111.99,61.43,--.--,0,0,0.3,0.3,0.3,0,1,0,--.--,--.--,--.--
2022-08-15 10:49:18.754,1.9,-2.7,55,0.0,0.0,0.0,0.0,0.0,0.000,0.2,-0.3,1.9,-0.160,-0.233,0.000,0.0,00:00:06,--.--,0,--.--,--.--,--.--,49,0000:00:00,0,1,0,0,30,0,2,--.--,0,0,0,--.--,7.62,3049,--.--,80,--.--,--:--:--,0,--.--,10:49:18,8/15/2022,--.--,--.--,--.--,--.--,--.--,--.--,--.--,--.--,--.--,--.--,--.--,--.--,0,0.000,0.000,0.000,0.000,0.000,0.000,0.000,0.000,0.000,0.000,0.000,0.000,false,false,false,false,false,false,false,false,false,false,false,false,--.--,--.--,--.--,--.--,--.--,--.--,--.--,--.--,0.0000000,0.0000000,31NAA 66021 00000,100.0,0.0,0.0,1,0,--.--,--.--,,--.--,--.--,--.--,0,0,--.--,--.--,0,--.--,--.--,--.--,--.--,--.--,--.--,--.--,--.--,--.--,--.--,--.--,--.--,--.--,--.--,--.--,--.--,--.--,--.--,111.99,61.12,--.--,0,0,0.3,0.4,0.3,0,1,0,--.--,--.--,--.--
2022-08-15 10:49:19.746,2.0,-3.8,59,0.0,0.0,0.0,0.0,0.0,0.000,0.1,-0.3,2.0,-0.130,-0.179,0.000,0.0,00:00:06,--.--,0,--.--,--.--,--.--,48,0000:00:00,0,1,0,0,30,0,2,--.--,0,0,0,--.--,7.03,3051,--.--,80,--.--,--:--:--,0,--.--,10:49:19,8/15/2022,--.--,--.--,--.--,--.--,--.--,--.--,--.--,--.--,--.--,--.--,--.--,--.--,0,0.000,0.000,0.000,0.000,0.000,0.000,0.000,0.000,0.000,0.000,0.000,0.000,false,false,false,false,false,false,false,false,false,false,false,false,--.--,--.--,--.--,--.--,--.--,--.--,--.--,--.--,0.0000000,0.0000000,31NAA 66021 00000,100.0,0.0,0.0,1,0,--.--,--.--,,--.--,--.--,--.--,0,0,--.--,--.--,0,--.--,--.--,--.--,--.--,--.--,--.--,--.--,--.--,--.--,--.--,--.--,--.--,--.--,--.--,--.--,--.--,--.--,--.--,112.01,60.84,--.--,0,0,0.4,0.5,0.3,0,1,0,--.--,--.--,--.--
2022-08-15 10:49:20.748,-1.2,0.6,57,0.0,0.0,0.0,0.0,0.0,0.000,0.1,-0.2,2.1,-0.110,-0.121,0.000,0.0,00:00:07,--.--,0,--.--,--.--,--.--,44,0000:00:00,0,1,0,0,30,0,2,--.--,0,0,0,--.--,4.71,3052,--.--,80,--.--,--:--:--,0,--.--,10:49:20,8/15/2022,--.--,--.--,--.--,--.--,--.--,--.--,--.--,--.--,--.--,--.--,--.--,--.--,0,0.000,0.000,0.000,0.000,0.000,0.000,0.000,0.000,0.000,0.000,0.000,0.000,false,false,false,false,false,false,false,false,false,false,false,false,--.--,--.--,--.--,--.--,--.--,--.--,--.--,--.--,0.0000000,0.0000000,31NAA 66021 00000,100.0,0.0,0.0,1,0,--.--,--.--,,--.--,--.--,--.--,0,0,--.--,--.--,0,--.--,--.--,--.--,--.--,--.--,--.--,--.--,--.--,--.--,--.--,--.--,--.--,--.--,--.--,--.--,--.--,--.--,--.--,112.03,60.57,--.--,0,0,0.2,0.2,0.2,0,1,0,--.--,--.--,--.--
2022-08-15 10:49:21.744,0.3,4.4,75,0.0,0.0,0.0,0.0,0.0,0.000,0.0,-0.3,1.9,-0.160,-0.219,0.000,0.0,00:00:08,--.--,0,--.--,--.--,--.--,53,0000:00:00,0,1,0,0,30,0,2,--.--,0,0,0,--.--,1.07,3052,--.--,80,--.--,--:--:--,0,--.--,10:49:21,8/15/2022,--.--,--.--,--.--,--.--,--.--,--.--,--.--,--.--,--.--,--.--,--.--,--.--,0,0.000,0.000,0.000,0.000,0.000,0.000,0.000,0.000,0.000,0.000,0.000,0.000,false,false,false,false,false,false,false,false,false,false,false,false,--.--,--.--,--.--,--.--,--.--,--.--,--.--,--.--,0.0000000,0.0000000,31NAA 66021 00000,100.0,0.0,0.0,1,0,--.--,--.--,,--.--,--.--,--.--,0,0,--.--,--.--,0,--.--,--.--,--.--,--.--,--.--,--.--,--.--,--.--,--.--,--.--,--.--,--.--,--.--,--.--,--.--,--.--,--.--,--.--,112.03,60.26,--.--,0,0,0.1,0.1,0.1,0,1,0,--.--,--.--,--.--
2022-08-15 10:49:22.753,1.4,1.0,71,0.0,0.0,0.0,0.0,0.0,0.000,0.0,-0.3,2.0,-0.140,-0.192,0.000,0.0,00:00:10,--.--,0,--.--,--.--,--.--,52,0000:00:00,0,1,0,0,30,0,2,--.--,0,0,0,--.--,6.90,3054,--.--,80,--.--,--:--:--,0,--.--,10:49:22,8/15/2022,--.--,--.--,--.--,--.--,--.--,--.--,--.--,--.--,--.--,--.--,--.--,--.--,0,0.000,0.000,0.000,0.000,0.000,0.000,0.000,0.000,0.000,0.000,0.000,0.000,false,false,false,false,false,false,false,false,false,false,false,false,--.--,--.--,--.--,--.--,--.--,--.--,--.--,--.--,0.0000000,0.0000000,31NAA 66021 00000,100.0,0.0,0.0,1,0,--.--,--.--,,--.--,--.--,--.--,0,0,--.--,--.--,0,--.--,--.--,--.--,--.--,--.--,--.--,--.--,--.--,--.--,--.--,--.--,--.--,--.--,--.--,--.--,--.--,--.--,--.--,112.03,60.01,--.--,0,0,0.3,0.4,0.3,0,1,0,--.--,--.--,--.--
2022-08-15 10:49:23.749,-0.5,-4.5,68,0.0,0.0,0.0,0.0,0.0,0.000,0.1,0.1,2.3,-0.030,0.023,0.000,0.0,00:00:11,--.--,0,--.--,--.--,--.--,36,0000:00:00,0,1,0,0,30,0,2,--.--,0,0,0,--.--,5.19,3055,--.--,80,--.--,--:--:--,0,--.--,10:49:23,8/15/2022,--.--,--.--,--.--,--.--,--.--,--.--,--.--,--.--,--.--,--.--,--.--,--.--,0,0.000,0.000,0.000,0.000,0.000,0.000,0.000,0.000,0.000,0.000,0.000,0.000,false,false,false,false,false,false,false,false,false,false,false,false,--.--,--.--,--.--,--.--,--.--,--.--,--.--,--.--,0.0000000,0.0000000,31NAA 66021 00000,100.0,0.0,0.0,1,0,--.--,--.--,,--.--,--.--,--.--,0,0,--.--,--.--,0,--.--,--.--,--.--,--.--,--.--,--.--,--.--,--.--,--.--,--.--,--.--,--.--,--.--,--.--,--.--,--.--,--.--,--.--,112.05,59.76,--.--,0,0,0.1,0.2,0.1,0,1,0,--.--,--.--,--.--
2022-08-15 10:49:24.748,-1.2,0.3,66,0.0,0.0,0.0,0.0,0.0,0.000,-0.0,-0.1,2.1,-0.090,-0.098,0.000,0.0,00:00:12,--.--,0,--.--,--.--,--.--,45,0000:00:00,0,1,0,0,30,0,2,--.--,0,0,0,--.--,2.16,3056,--.--,80,--.--,--:--:--,0,--.--,10:49:24,8/15/2022,--.--,--.--,--.--,--.--,--.--,--.--,--.--,--.--,--.--,--.--,--.--,--.--,0,0.000,0.000,0.000,0.000,0.000,0.000,0.000,0.000,0.000,0.000,0.000,0.000,false,false,false,false,false,false,false,false,false,false,false,false,--.--,--.--,--.--,--.--,--.--,--.--,--.--,--.--,0.0000000,0.0000000,31NAA 66021 00000,100.0,0.0,0.0,1,0,--.--,--.--,,--.--,--.--,--.--,0,0,--.--,--.--,0,--.--,--.--,--.--,--.--,--.--,--.--,--.--,--.--,--.--,--.--,--.--,--.--,--.--,--.--,--.--,--.--,--.--,--.--,112.06,59.58,--.--,0,0,0.1,0.1,0.0,0,1,0,--.--,--.--,--.--
2022-08-15 10:49:25.746,-0.4,4.9,67,0.0,0.0,0.0,0.0,0.0,0.000,0.2,-0.3,1.9,-0.160,-0.231,0.000,0.0,00:00:13,--.--,0,--.--,--.--,--.--,50,0000:00:00,0,1,0,0,30,0,2,--.--,0,0,0,--.--,1.46,3056,--.--,80,--.--,--:--:--,0,--.--,10:49:25,8/15/2022,--.--,--.--,--.--,--.--,--.--,--.--,--.--,--.--,--.--,--.--,--.--,--.--,0,0.000,0.000,0.000,0.000,0.000,0.000,0.000,0.000,0.000,0.000,0.000,0.000,false,false,false,false,false,false,false,false,false,false,false,false,--.--,--.--,--.--,--.--,--.--,--.--,--.--,--.--,0.0000000,0.0000000,31NAA 66021 00000,100.0,0.0,0.0,1,0,--.--,--.--,,--.--,--.--,--.--,0,0,--.--,--.--,0,--.--,--.--,--.--,--.--,--.--,--.--,--.--,--.--,--.--,--.--,--.--,--.--,--.--,--.--,--.--,--.--,--.--,--.--,112.06,59.38,--.--,0,0,0.0,0.1,0.1,0,1,0,--.--,--.--,--.--
2022-08-15 10:49:26.746,-2.2,3.4,67,0.0,0.0,0.0,0.0,0.0,0.000,0.1,-0.4,1.9,-0.160,-0.240,0.000,0.0,00:00:14,--.--,0,--.--,--.--,--.--,54,0000:00:00,0,1,0,0,30,0,2,--.--,0,0,0,--.--,1.63,3056,--.--,80,--.--,--:--:--,0,--.--,10:49:26,8/15/2022,--.--,--.--,--.--,--.--,--.--,--.--,--.--,--.--,--.--,--.--,--.--,--.--,0,0.000,0.000,0.000,0.000,0.000,0.000,0.000,0.000,0.000,0.000,0.000,0.000,false,false,false,false,false,false,false,false,false,false,false,false,--.--,--.--,--.--,--.--,--.--,--.--,--.--,--.--,0.0000000,0.0000000,31NAA 66021 00000,100.0,0.0,0.0,1,0,--.--,--.--,,--.--,--.--,--.--,0,0,--.--,--.--,0,--.--,--.--,--.--,--.--,--.--,--.--,--.--,--.--,--.--,--.--,--.--,--.--,--.--,--.--,--.--,--.--,--.--,--.--,112.08,59.18,--.--,0,0,0.1,0.1,0.1,0,1,0,--.--,--.--,--.--
2022-08-15 10:49:27.745,-2.2,1.6,68,0.0,0.0,0.0,0.0,0.0,0.000,0.1,-0.1,2.2,-0.080,-0.075,0.000,0.0,00:00:15,--.--,0,--.--,--.--,--.--,44,0000:00:00,0,1,0,0,30,0,2,--.--,0,0,0,--.--,1.67,3057,--.--,80,--.--,--:--:--,0,--.--,10:49:27,8/15/2022,--.--,--.--,--.--,--.--,--.--,--.--,--.--,--.--,--.--,--.--,--.--,--.--,0,0.000,0.000,0.000,0.000,0.000,0.000,0.000,0.000,0.000,0.000,0.000,0.000,false,false,false,false,false,false,false,false,false,false,false,false,--.--,--.--,--.--,--.--,--.--,--.--,--.--,--.--,0.0000000,0.0000000,31NAA 66021 00000,100.0,0.0,0.0,1,0,--.--,--.--,,--.--,--.--,--.--,0,0,--.--,--.--,0,--.--,--.--,--.--,--.--,--.--,--.--,--.--,--.--,--.--,--.--,--.--,--.--,--.--,--.--,--.--,--.--,--.--,--.--,112.08,59.00,--.--,0,0,0.2,0.1,0.1,0,1,0,--.--,--.--,--.--
2022-08-15 10:49:28.758,-1.1,1.0,68,0.0,0.0,0.0,0.0,0.0,0.000,0.2,-0.1,2.2,-0.080,-0.085,0.000,0.0,00:00:16,--.--,0,--.--,--.--,--.--,42,0000:00:00,0,1,0,0,30,0,2,--.--,0,0,0,--.--,1.79,3057,--.--,80,--.--,--:--:--,0,--.--,10:49:28,8/15/2022,--.--,--.--,--.--,--.--,--.--,--.--,--.--,--.--,--.--,--.--,--.--,--.--,0,0.000,0.000,0.000,0.000,0.000,0.000,0.000,0.000,0.000,0.000,0.000,0.000,false,false,false,false,false,false,false,false,false,false,false,false,--.--,--.--,--.--,--.--,--.--,--.--,--.--,--.--,0.0000000,0.0000000,31NAA 66021 00000,100.0,0.0,0.0,1,0,--.--,--.--,,--.--,--.--,--.--,0,0,--.--,--.--,0,--.--,--.--,--.--,--.--,--.--,--.--,--.--,--.--,--.--,--.--,--.--,--.--,--.--,--.--,--.--,--.--,--.--,--.--,112.10,58.86,--.--,0,0,0.1,0.1,0.1,0,1,0,--.--,--.--,--.--
2022-08-15 10:49:29.743,0.3,-3.8,69,0.0,0.0,0.0,0.0,0.0,0.000,0.0,-0.1,2.2,-0.070,-0.048,0.000,0.0,00:00:17,--.--,0,--.--,--.--,--.--,43,0000:00:00,0,1,0,0,30,0,2,--.--,0,0,0,--.--,1.92,3058,--.--,80,--.--,--:--:--,0,--.--,10:49:29,8/15/2022,--.--,--.--,--.--,--.--,--.--,--.--,--.--,--.--,--.--,--.--,--.--,--.--,0,0.000,0.000,0.000,0.000,0.000,0.000,0.000,0.000,0.000,0.000,0.000,0.000,false,false,false,false,false,false,false,false,false,false,false,false,--.--,--.--,--.--,--.--,--.--,--.--,--.--,--.--,0.0000000,0.0000000,31NAA 66021 00000,100.0,0.0,0.0,1,0,--.--,--.--,,--.--,--.--,--.--,0,0,--.--,--.--,0,--.--,--.--,--.--,--.--,--.--,--.--,--.--,--.--,--.--,--.--,--.--,--.--,--.--,--.--,--.--,--.--,--.--,--.--,112.12,58.75,--.--,0,0,0.1,0.1,0.1,0,1,0,--.--,--.--,--.--
2022-08-15 10:49:30.756,0.1,3.6,68,0.0,0.0,0.0,0.0,0.0,0.000,0.1,-0.3,1.9,-0.150,-0.218,0.000,0.0,00:00:18,--.--,0,--.--,--.--,--.--,52,0000:00:00,0,1,0,0,30,0,2,--.--,0,0,0,--.--,1.43,3058,--.--,80,--.--,--:--:--,0,--.--,10:49:30,8/15/2022,--.--,--.--,--.--,--.--,--.--,--.--,--.--,--.--,--.--,--.--,--.--,--.--,0,0.000,0.000,0.000,0.000,0.000,0.000,0.000,0.000,0.000,0.000,0.000,0.000,false,false,false,false,false,false,false,false,false,false,false,false,--.--,--.--,--.--,--.--,--.--,--.--,--.--,--.--,0.0000000,0.0000000,31NAA 66021 00000,100.0,0.0,0.0,1,0,--.--,--.--,,--.--,--.--,--.--,0,0,--.--,--.--,0,--.--,--.--,--.--,--.--,--.--,--.--,--.--,--.--,--.--,--.--,--.--,--.--,--.--,--.--,--.--,--.--,--.--,--.--,112.12,58.62,--.--,0,0,0.1,0.1,0.1,0,1,0,--.--,--.--,--.--
2022-08-15 10:49:31.750,-3.5,3.0,69,0.0,0.0,0.0,0.0,0.0,0.000,0.1,-0.4,1.9,-0.170,-0.253,0.000,0.0,00:00:19,--.--,0,--.--,--.--,--.--,55,0000:00:00,0,1,0,0,30,0,2,--.--,0,0,0,--.--,2.85,3059,--.--,80,--.--,--:--:--,0,--.--,10:49:31,8/15/2022,--.--,--.--,--.--,--.--,--.--,--.--,--.--,--.--,--.--,--.--,--.--,--.--,0,0.000,0.000,0.000,0.000,0.000,0.000,0.000,0.000,0.000,0.000,0.000,0.000,false,false,false,false,false,false,false,false,false,false,false,false,--.--,--.--,--.--,--.--,--.--,--.--,--.--,--.--,0.0000000,0.0000000,31NAA 66021 00000,100.0,0.0,0.0,1,0,--.--,--.--,,--.--,--.--,--.--,0,0,--.--,--.--,0,--.--,--.--,--.--,--.--,--.--,--.--,--.--,--.--,--.--,--.--,--.--,--.--,--.--,--.--,--.--,--.--,--.--,--.--,112.14,58.51,--.--,0,0,0.1,0.1,0.1,0,1,0,--.--,--.--,--.--
2022-08-15 10:49:32.746,0.1,-1.2,70,0.0,0.0,0.0,0.0,0.0,0.000,0.0,-0.1,2.2,-0.070,-0.055,0.000,0.0,00:00:20,--.--,0,--.--,--.--,--.--,44,0000:00:00,0,1,0,0,30,0,2,--.--,0,0,0,--.--,1.95,3059,--.--,80,--.--,--:--:--,0,--.--,10:49:32,8/15/2022,--.--,--.--,--.--,--.--,--.--,--.--,--.--,--.--,--.--,--.--,--.--,--.--,0,0.000,0.000,0.000,0.000,0.000,0.000,0.000,0.000,0.000,0.000,0.000,0.000,false,false,false,false,false,false,false,false,false,false,false,false,--.--,--.--,--.--,--.--,--.--,--.--,--.--,--.--,0.0000000,0.0000000,31NAA 66021 00000,100.0,0.0,0.0,1,0,--.--,--.--,,--.--,--.--,--.--,0,0,--.--,--.--,0,--.--,--.--,--.--,--.--,--.--,--.--,--.--,--.--,--.--,--.--,--.--,--.--,--.--,--.--,--.--,--.--,--.--,--.--,112.15,58.41,--.--,0,0,0.2,0.1,0.1,0,1,0,--.--,--.--,--.--
2022-08-15 10:49:33.755,0.7,1.4,69,0.0,0.0,0.0,0.0,0.0,0.000,0.1,-0.2,2.1,-0.110,-0.131,0.000,0.0,00:00:21,--.--,0,--.--,--.--,--.--,48,0000:00:00,0,1,0,0,30,0,2,--.--,0,0,0,--.--,1.41,3060,--.--,80,--.--,--:--:--,0,--.--,10:49:33,8/15/2022,--.--,--.--,--.--,--.--,--.--,--.--,--.--,--.--,--.--,--.--,--.--,--.--,0,0.000,0.000,0.000,0.000,0.000,0.000,0.000,0.000,0.000,0.000,0.000,0.000,false,false,false,false,false,false,false,false,false,false,false,false,--.--,--.--,--.--,--.--,--.--,--.--,--.--,--.--,0.0000000,0.0000000,31NAA 66021 00000,100.0,0.0,0.0,1,0,--.--,--.--,,--.--,--.--,--.--,0,0,--.--,--.--,0,--.--,--.--,--.--,--.--,--.--,--.--,--.--,--.--,--.--,--.--,--.--,--.--,--.--,--.--,--.--,--.--,--.--,--.--,112.17,58.32,--.--,0,0,0.1,0.1,0.1,0,1,0,--.--,--.--,--.--
2022-08-15 10:49:34.746,-0.5,0.5,70,0.0,0.0,0.0,0.0,0.0,0.000,0.0,-0.2,2.1,-0.110,-0.124,0.000,0.0,00:00:22,--.--,0,--.--,--.--,--.--,50,0000:00:00,0,1,0,0,30,0,2,--.--,0,0,0,--.--,1.06,3060,--.--,80,--.--,--:--:--,0,--.--,10:49:34,8/15/2022,--.--,--.--,--.--,--.--,--.--,--.--,--.--,--.--,--.--,--.--,--.--,--.--,0,0.000,0.000,0.000,0.000,0.000,0.000,0.000,0.000,0.000,0.000,0.000,0.000,false,false,false,false,false,false,false,false,false,false,false,false,--.--,--.--,--.--,--.--,--.--,--.--,--.--,--.--,0.0000000,0.0000000,31NAA 66021 00000,100.0,0.0,0.0,1,0,--.--,--.--,,--.--,--.--,--.--,0,0,--.--,--.--,0,--.--,--.--,--.--,--.--,--.--,--.--,--.--,--.--,--.--,--.--,--.--,--.--,--.--,--.--,--.--,--.--,--.--,--.--,112.19,58.21,--.--,0,0,0.1,0.1,0.0,0,1,0,--.--,--.--,--.--
2022-08-15 10:49:35.744,-0.3,1.0,70,0.0,0.0,0.0,0.0,0.0,0.000,0.2,-0.2,2.1,-0.100,-0.114,0.000,0.0,00:00:23,--.--,0,--.--,--.--,--.--,46,0000:00:00,0,1,0,0,30,0,2,--.--,0,0,0,--.--,1.61,3061,--.--,80,--.--,--:--:--,0,--.--,10:49:35,8/15/2022,--.--,--.--,--.--,--.--,--.--,--.--,--.--,--.--,--.--,--.--,--.--,--.--,0,0.000,0.000,0.000,0.000,0.000,0.000,0.000,0.000,0.000,0.000,0.000,0.000,false,false,false,false,false,false,false,false,false,false,false,false,--.--,--.--,--.--,--.--,--.--,--.--,--.--,--.--,0.0000000,0.0000000,31NAA 66021 00000,100.0,0.0,0.0,1,0,--.--,--.--,,--.--,--.--,--.--,0,0,--.--,--.--,0,--.--,--.--,--.--,--.--,--.--,--.--,--.--,--.--,--.--,--.--,--.--,--.--,--.--,--.--,--.--,--.--,--.--,--.--,112.21,58.10,--.--,0,0,0.1,0.1,0.1,0,1,0,--.--,--.--,--.--
2022-08-15 10:49:36.749,0.1,-0.1,70,0.0,0.0,0.0,0.0,0.0,0.000,0.0,-0.2,2.0,-0.120,-0.156,0.000,0.0,00:00:24,--.--,0,--.--,--.--,--.--,52,0000:00:00,0,1,0,0,30,0,2,--.--,0,0,0,--.--,1.23,3061,--.--,80,--.--,--:--:--,0,--.--,10:49:36,8/15/2022,--.--,--.--,--.--,--.--,--.--,--.--,--.--,--.--,--.--,--.--,--.--,--.--,0,0.000,0.000,0.000,0.000,0.000,0.000,0.000,0.000,0.000,0.000,0.000,0.000,false,false,false,false,false,false,false,false,false,false,false,false,--.--,--.--,--.--,--.--,--.--,--.--,--.--,--.--,0.0000000,0.0000000,31NAA 66021 00000,100.0,0.0,0.0,1,0,--.--,--.--,,--.--,--.--,--.--,0,0,--.--,--.--,0,--.--,--.--,--.--,--.--,--.--,--.--,--.--,--.--,--.--,--.--,--.--,--.--,--.--,--.--,--.--,--.--,--.--,--.--,112.23,58.06,--.--,0,0,0.1,0.1,0.0,0,1,0,--.--,--.--,--.--
2022-08-15 10:49:37.752,-0.7,1.2,71,0.0,0.0,0.0,0.0,0.0,0.000,0.2,-0.1,2.1,-0.100,-0.111,0.000,0.0,00:00:25,--.--,0,--.--,--.--,--.--,46,0000:00:00,0,1,0,0,30,0,2,--.--,0,0,0,--.--,1.37,3061,--.--,80,--.--,--:--:--,0,--.--,10:49:37,8/15/2022,--.--,--.--,--.--,--.--,--.--,--.--,--.--,--.--,--.--,--.--,--.--,--.--,0,0.000,0.000,0.000,0.000,0.000,0.000,0.000,0.000,0.000,0.000,0.000,0.000,false,false,false,false,false,false,false,false,false,false,false,false,--.--,--.--,--.--,--.--,--.--,--.--,--.--,--.--,0.0000000,0.0000000,31NAA 66021 00000,100.0,0.0,0.0,1,0,--.--,--.--,,--.--,--.--,--.--,0,0,--.--,--.--,0,--.--,--.--,--.--,--.--,--.--,--.--,--.--,--.--,--.--,--.--,--.--,--.--,--.--,--.--,--.--,--.--,--.--,--.--,112.23,57.99,--.--,0,0,0.1,0.0,0.1,0,1,0,--.--,--.--,--.--
2022-08-15 10:49:38.744,0.9,-3.2,70,0.0,0.0,0.0,0.0,0.0,0.000,-0.0,-0.1,2.2,-0.080,-0.077,0.000,0.0,00:00:26,--.--,0,--.--,--.--,--.--,47,0000:00:00,0,1,0,0,30,0,2,--.--,0,0,0,--.--,1.07,3062,--.--,80,--.--,--:--:--,0,--.--,10:49:38,8/15/2022,--.--,--.--,--.--,--.--,--.--,--.--,--.--,--.--,--.--,--.--,--.--,--.--,0,0.000,0.000,0.000,0.000,0.000,0.000,0.000,0.000,0.000,0.000,0.000,0.000,false,false,false,false,false,false,false,false,false,false,false,false,--.--,--.--,--.--,--.--,--.--,--.--,--.--,--.--,0.0000000,0.0000000,31NAA 66021 00000,100.0,0.0,0.0,1,0,--.--,--.--,,--.--,--.--,--.--,0,0,--.--,--.--,0,--.--,--.--,--.--,--.--,--.--,--.--,--.--,--.--,--.--,--.--,--.--,--.--,--.--,--.--,--.--,--.--,--.--,--.--,112.24,57.94,--.--,0,0,0.1,0.1,0.0,0,1,0,--.--,--.--,--.--
2022-08-15 10:49:39.758,-0.9,2.6,70,0.0,0.0,0.0,0.0,0.0,0.000,0.2,-0.2,2.1,-0.100,-0.117,0.000,0.0,00:00:27,--.--,0,--.--,--.--,--.--,47,0000:00:00,0,1,0,0,30,0,2,--.--,0,0,0,--.--,1.91,3062,--.--,80,--.--,--:--:--,0,--.--,10:49:39,8/15/2022,--.--,--.--,--.--,--.--,--.--,--.--,--.--,--.--,--.--,--.--,--.--,--.--,0,0.000,0.000,0.000,0.000,0.000,0.000,0.000,0.000,0.000,0.000,0.000,0.000,false,false,false,false,false,false,false,false,false,false,false,false,--.--,--.--,--.--,--.--,--.--,--.--,--.--,--.--,0.0000000,0.0000000,31NAA 66021 00000,100.0,0.0,0.0,1,0,--.--,--.--,,--.--,--.--,--.--,0,0,--.--,--.--,0,--.--,--.--,--.--,--.--,--.--,--.--,--.--,--.--,--.--,--.--,--.--,--.--,--.--,--.--,--.--,--.--,--.--,--.--,112.26,57.87,--.--,0,0,0.1,0.1,0.1,0,1,0,--.--,--.--,--.--
2022-08-15 10:49:40.745,0.5,-2.9,70,0.0,0.0,0.0,0.0,0.0,0.000,0.1,-0.1,2.2,-0.080,-0.076,0.000,0.0,00:00:28,--.--,0,--.--,--.--,--.--,45,0000:00:00,0,1,0,0,30,0,2,--.--,0,0,0,--.--,1.31,3063,--.--,80,--.--,--:--:--,0,--.--,10:49:40,8/15/2022,--.--,--.--,--.--,--.--,--.--,--.--,--.--,--.--,--.--,--.--,--.--,--.--,0,0.000,0.000,0.000,0.000,0.000,0.000,0.000,0.000,0.000,0.000,0.000,0.000,false,false,false,false,false,false,false,false,false,false,false,false,--.--,--.--,--.--,--.--,--.--,--.--,--.--,--.--,0.0000000,0.0000000,31NAA 66021 00000,100.0,0.0,0.0,1,0,--.--,--.--,,--.--,--.--,--.--,0,0,--.--,--.--,0,--.--,--.--,--.--,--.--,--.--,--.--,--.--,--.--,--.--,--.--,--.--,--.--,--.--,--.--,--.--,--.--,--.--,--.--,112.28,57.81,--.--,0,0,0.1,0.1,0.1,0,1,0,--.--,--.--,--.--
2022-08-15 10:49:41.760,-0.2,2.2,71,0.0,0.0,0.0,0.0,0.0,0.000,0.0,-0.3,2.0,-0.130,-0.179,0.000,0.0,00:00:29,--.--,0,--.--,--.--,--.--,54,0000:00:00,0,1,0,0,30,0,2,--.--,0,0,0,--.--,1.32,3063,--.--,80,--.--,--:--:--,0,--.--,10:49:41,8/15/2022,--.--,--.--,--.--,--.--,--.--,--.--,--.--,--.--,--.--,--.--,--.--,--.--,0,0.000,0.000,0.000,0.000,0.000,0.000,0.000,0.000,0.000,0.000,0.000,0.000,false,false,false,false,false,false,false,false,false,false,false,false,--.--,--.--,--.--,--.--,--.--,--.--,--.--,--.--,0.0000000,0.0000000,31NAA 66021 00000,100.0,0.0,0.0,1,0,--.--,--.--,,--.--,--.--,--.--,0,0,--.--,--.--,0,--.--,--.--,--.--,--.--,--.--,--.--,--.--,--.--,--.--,--.--,--.--,--.--,--.--,--.--,--.--,--.--,--.--,--.--,112.30,57.72,--.--,0,0,0.1,0.1,0.1,0,1,0,--.--,--.--,--.--
2022-08-15 10:49:42.769,-0.0,-1.1,68,0.0,0.0,0.0,0.0,0.0,0.000,0.3,-0.2,2.1,-0.100,-0.048,0.000,0.0,00:00:30,--.--,0,--.--,--.--,--.--,38,0000:00:00,0,1,0,0,30,0,2,--.--,0,0,0,--.--,5.70,3064,--.--,80,--.--,--:--:--,0,--.--,10:49:42,8/15/2022,--.--,--.--,--.--,--.--,--.--,--.--,--.--,--.--,--.--,--.--,--.--,--.--,0,0.000,0.000,0.000,0.000,0.000,0.000,0.000,0.000,0.000,0.000,0.000,0.000,false,false,false,false,false,false,false,false,false,false,false,false,--.--,--.--,--.--,--.--,--.--,--.--,--.--,--.--,0.0000000,0.0000000,31NAA 66021 00000,100.0,0.0,0.0,1,0,--.--,--.--,,--.--,--.--,--.--,0,0,--.--,--.--,0,--.--,--.--,--.--,--.--,--.--,--.--,--.--,--.--,--.--,--.--,--.--,--.--,--.--,--.--,--.--,--.--,--.--,--.--,112.32,57.69,--.--,0,0,0.4,0.4,0.3,0,1,0,--.--,--.--,--.--
2022-08-15 10:49:43.760,3.1,-5.8,68,0.0,0.0,0.0,0.0,0.0,0.000,-0.2,-0.3,1.9,-0.130,-0.123,0.000,0.0,00:00:31,--.--,0,--.--,--.--,--.--,48,0000:00:00,0,1,0,0,30,0,2,--.--,0,0,0,--.--,6.91,3066,--.--,80,--.--,--:--:--,0,--.--,10:49:43,8/15/2022,--.--,--.--,--.--,--.--,--.--,--.--,--.--,--.--,--.--,--.--,--.--,--.--,0,0.000,0.000,0.000,0.000,0.000,0.000,0.000,0.000,0.000,0.000,0.000,0.000,false,false,false,false,false,false,false,false,false,false,false,false,--.--,--.--,--.--,--.--,--.--,--.--,--.--,--.--,0.0000000,0.0000000,31NAA 66021 00000,100.0,0.0,0.0,1,0,--.--,--.--,,--.--,--.--,--.--,0,0,--.--,--.--,0,--.--,--.--,--.--,--.--,--.--,--.--,--.--,--.--,--.--,--.--,--.--,--.--,--.--,--.--,--.--,--.--,--.--,--.--,112.33,57.63,--.--,0,0,0.3,0.3,0.3,0,1,0,--.--,--.--,--.--
2022-08-15 10:49:44.779,-0.1,2.1,68,0.0,0.0,0.0,0.0,0.0,0.000,0.1,-0.5,1.8,-0.200,-0.247,0.000,0.0,00:00:32,--.--,0,--.--,--.--,--.--,51,0000:00:00,0,1,0,0,30,0,2,--.--,0,0,0,--.--,1.19,3067,--.--,80,--.--,--:--:--,0,--.--,10:49:44,8/15/2022,--.--,--.--,--.--,--.--,--.--,--.--,--.--,--.--,--.--,--.--,--.--,--.--,0,0.000,0.000,0.000,0.000,0.000,0.000,0.000,0.000,0.000,0.000,0.000,0.000,false,false,false,false,false,false,false,false,false,false,false,false,--.--,--.--,--.--,--.--,--.--,--.--,--.--,--.--,0.0000000,0.0000000,31NAA 66021 00000,100.0,0.0,0.0,1,0,--.--,--.--,,--.--,--.--,--.--,0,0,--.--,--.--,0,--.--,--.--,--.--,--.--,--.--,--.--,--.--,--.--,--.--,--.--,--.--,--.--,--.--,--.--,--.--,--.--,--.--,--.--,112.35,57.58,--.--,0,0,0.1,0.1,0.1,0,1,0,--.--,--.--,--.--
2022-08-15 10:49:45.776,-1.0,-0.2,66,0.0,0.0,0.0,0.0,0.0,0.000,0.1,-0.3,1.9,-0.150,-0.147,0.000,0.0,00:00:33,--.--,0,--.--,--.--,--.--,45,0000:00:00,0,1,0,0,30,0,2,--.--,0,0,0,--.--,1.20,3067,--.--,80,--.--,--:--:--,0,--.--,10:49:45,8/15/2022,--.--,--.--,--.--,--.--,--.--,--.--,--.--,--.--,--.--,--.--,--.--,--.--,0,0.000,0.000,0.000,0.000,0.000,0.000,0.000,0.000,0.000,0.000,0.000,0.000,false,false,false,false,false,false,false,false,false,false,false,false,--.--,--.--,--.--,--.--,--.--,--.--,--.--,--.--,0.0000000,0.0000000,31NAA 66021 00000,100.0,0.0,0.0,1,0,--.--,--.--,,--.--,--.--,--.--,0,0,--.--,--.--,0,--.--,--.--,--.--,--.--,--.--,--.--,--.--,--.--,--.--,--.--,--.--,--.--,--.--,--.--,--.--,--.--,--.--,--.--,112.37,57.51,--.--,0,0,0.1,0.1,0.1,0,1,0,--.--,--.--,--.--
2022-08-15 10:49:46.793,0.5,0.8,66,0.0,0.0,0.0,0.0,0.0,0.000,-0.1,-0.4,1.9,-0.170,-0.177,0.000,0.0,00:00:34,--.--,0,--.--,--.--,--.--,51,0000:00:00,0,1,0,0,30,0,2,--.--,0,0,0,--.--,1.33,3067,--.--,80,--.--,--:--:--,0,--.--,10:49:46,8/15/2022,--.--,--.--,--.--,--.--,--.--,--.--,--.--,--.--,--.--,--.--,--.--,--.--,0,0.000,0.000,0.000,0.000,0.000,0.000,0.000,0.000,0.000,0.000,0.000,0.000,false,false,false,false,false,false,false,false,false,false,false,false,--.--,--.--,--.--,--.--,--.--,--.--,--.--,--.--,0.0000000,0.0000000,31NAA 66021 00000,100.0,0.0,0.0,1,0,--.--,--.--,,--.--,--.--,--.--,0,0,--.--,--.--,0,--.--,--.--,--.--,--.--,--.--,--.--,--.--,--.--,--.--,--.--,--.--,--.--,--.--,--.--,--.--,--.--,--.--,--.--,112.39,57.45,--.--,0,0,0.1,0.1,0.1,0,1,0,--.--,--.--,--.--
2022-08-15 10:49:47.776,-0.1,1.2,70,0.0,0.0,0.0,0.0,0.0,0.000,0.2,-0.3,1.9,-0.140,-0.143,0.000,0.0,00:00:35,--.--,0,--.--,--.--,--.--,43,0000:00:00,0,1,0,0,30,0,2,--.--,0,0,0,--.--,6.50,3068,--.--,80,--.--,--:--:--,0,--.--,10:49:47,8/15/2022,--.--,--.--,--.--,--.--,--.--,--.--,--.--,--.--,--.--,--.--,--.--,--.--,0,0.000,0.000,0.000,0.000,0.000,0.000,0.000,0.000,0.000,0.000,0.000,0.000,false,false,false,false,false,false,false,false,false,false,false,false,--.--,--.--,--.--,--.--,--.--,--.--,--.--,--.--,0.0000000,0.0000000,31NAA 66021 00000,100.0,0.0,0.0,1,0,--.--,--.--,,--.--,--.--,--.--,0,0,--.--,--.--,0,--.--,--.--,--.--,--.--,--.--,--.--,--.--,--.--,--.--,--.--,--.--,--.--,--.--,--.--,--.--,--.--,--.--,--.--,112.41,57.40,--.--,0,0,0.3,0.3,0.3,0,1,0,--.--,--.--,--.--
2022-08-15 10:49:48.777,3.0,-7.4,69,0.0,0.0,0.0,0.0,0.0,0.000,0.0,-0.2,2.0,-0.120,-0.094,0.000,0.0,00:00:36,--.--,0,--.--,--.--,--.--,43,0000:00:00,0,1,0,0,30,0,2,--.--,0,0,0,--.--,2.44,3070,--.--,80,--.--,--:--:--,0,--.--,10:49:48,8/15/2022,--.--,--.--,--.--,--.--,--.--,--.--,--.--,--.--,--.--,--.--,--.--,--.--,0,0.000,0.000,0.000,0.000,0.000,0.000,0.000,0.000,0.000,0.000,0.000,0.000,false,false,false,false,false,false,false,false,false,false,false,false,--.--,--.--,--.--,--.--,--.--,--.--,--.--,--.--,0.0000000,0.0000000,31NAA 66021 00000,100.0,0.0,0.0,1,0,--.--,--.--,,--.--,--.--,--.--,0,0,--.--,--.--,0,--.--,--.--,--.--,--.--,--.--,--.--,--.--,--.--,--.--,--.--,--.--,--.--,--.--,--.--,--.--,--.--,--.--,--.--,112.42,57.34,--.--,0,0,0.2,0.3,0.2,0,1,0,--.--,--.--,--.--
2022-08-15 10:49:49.776,3.2,-2.9,70,0.0,0.0,0.0,0.0,0.0,0.000,0.0,-0.4,1.9,-0.160,-0.176,0.000,0.0,00:00:37,--.--,0,--.--,--.--,--.--,47,0000:00:00,0,1,0,0,30,0,2,--.--,0,0,0,--.--,6.85,3071,--.--,80,--.--,--:--:--,0,--.--,10:49:49,8/15/2022,--.--,--.--,--.--,--.--,--.--,--.--,--.--,--.--,--.--,--.--,--.--,--.--,0,0.000,0.000,0.000,0.000,0.000,0.000,0.000,0.000,0.000,0.000,0.000,0.000,false,false,false,false,false,false,false,false,false,false,false,false,--.--,--.--,--.--,--.--,--.--,--.--,--.--,--.--,0.0000000,0.0000000,31NAA 66021 00000,100.0,0.0,0.0,1,0,--.--,--.--,,--.--,--.--,--.--,0,0,--.--,--.--,0,--.--,--.--,--.--,--.--,--.--,--.--,--.--,--.--,--.--,--.--,--.--,--.--,--.--,--.--,--.--,--.--,--.--,--.--,112.44,57.27,--.--,0,0,0.3,0.4,0.3,0,1,0,--.--,--.--,--.--
2022-08-15 10:49:50.784,-0.1,-2.9,66,0.0,0.0,0.0,0.0,0.0,0.000,-0.1,-0.4,1.8,-0.190,-0.180,0.000,0.0,00:00:38,--.--,0,--.--,--.--,--.--,35,0000:00:00,0,1,0,0,30,0,2,--.--,0,0,0,--.--,5.75,3072,--.--,80,--.--,--:--:--,0,--.--,10:49:50,8/15/2022,--.--,--.--,--.--,--.--,--.--,--.--,--.--,--.--,--.--,--.--,--.--,--.--,0,0.000,0.000,0.000,0.000,0.000,0.000,0.000,0.000,0.000,0.000,0.000,0.000,false,false,false,false,false,false,false,false,false,false,false,false,--.--,--.--,--.--,--.--,--.--,--.--,--.--,--.--,0.0000000,0.0000000,31NAA 66021 00000,100.0,0.0,0.0,1,0,--.--,--.--,,--.--,--.--,--.--,0,0,--.--,--.--,0,--.--,--.--,--.--,--.--,--.--,--.--,--.--,--.--,--.--,--.--,--.--,--.--,--.--,--.--,--.--,--.--,--.--,--.--,112.46,57.20,--.--,0,0,0.2,0.3,0.2,0,1,0,--.--,--.--,--.--
2022-08-15 10:49:51.778,0.1,2.9,65,0.0,0.0,0.0,0.0,0.0,0.000,-0.1,-0.8,1.5,-0.290,-0.373,0.000,0.0,00:00:39,--.--,0,--.--,--.--,--.--,59,0000:00:00,0,1,0,0,30,0,2,--.--,0,0,0,--.--,2.93,3074,--.--,80,--.--,--:--:--,0,--.--,10:49:51,8/15/2022,--.--,--.--,--.--,--.--,--.--,--.--,--.--,--.--,--.--,--.--,--.--,--.--,0,0.000,0.000,0.000,0.000,0.000,0.000,0.000,0.000,0.000,0.000,0.000,0.000,false,false,false,false,false,false,false,false,false,false,false,false,--.--,--.--,--.--,--.--,--.--,--.--,--.--,--.--,0.0000000,0.0000000,31NAA 66021 00000,100.0,0.0,0.0,1,0,--.--,--.--,,--.--,--.--,--.--,0,0,--.--,--.--,0,--.--,--.--,--.--,--.--,--.--,--.--,--.--,--.--,--.--,--.--,--.--,--.--,--.--,--.--,--.--,--.--,--.--,--.--,112.48,57.16,--.--,0,0,0.1,0.1,0.1,0,1,0,--.--,--.--,--.--
2022-08-15 10:49:52.775,-3.3,4.8,66,0.0,0.0,0.0,0.0,0.0,0.000,0.1,-0.7,1.6,-0.250,-0.209,0.000,0.0,00:00:40,--.--,0,--.--,--.--,--.--,38,0000:00:00,0,1,0,0,30,0,2,--.--,0,0,0,--.--,3.87,3074,--.--,80,--.--,--:--:--,0,--.--,10:49:52,8/15/2022,--.--,--.--,--.--,--.--,--.--,--.--,--.--,--.--,--.--,--.--,--.--,--.--,0,0.000,0.000,0.000,0.000,0.000,0.000,0.000,0.000,0.000,0.000,0.000,0.000,false,false,false,false,false,false,false,false,false,false,false,false,--.--,--.--,--.--,--.--,--.--,--.--,--.--,--.--,0.0000000,0.0000000,31NAA 66021 00000,100.0,0.0,0.0,1,0,--.--,--.--,,--.--,--.--,--.--,0,0,--.--,--.--,0,--.--,--.--,--.--,--.--,--.--,--.--,--.--,--.--,--.--,--.--,--.--,--.--,--.--,--.--,--.--,--.--,--.--,--.--,112.50,57.11,--.--,0,0,0.2,0.3,0.3,0,1,0,--.--,--.--,--.--
2022-08-15 10:49:53.777,1.0,-2.7,73,0.0,0.0,0.0,0.0,0.0,0.000,-0.0,-0.8,1.5,-0.290,-0.261,0.000,0.0,00:00:41,--.--,0,--.--,--.--,--.--,43,0000:00:00,0,1,0,0,30,0,2,--.--,0,0,0,--.--,0.78,3075,--.--,80,--.--,--:--:--,0,--.--,10:49:53,8/15/2022,--.--,--.--,--.--,--.--,--.--,--.--,--.--,--.--,--.--,--.--,--.--,--.--,0,0.000,0.000,0.000,0.000,0.000,0.000,0.000,0.000,0.000,0.000,0.000,0.000,false,false,false,false,false,false,false,false,false,false,false,false,--.--,--.--,--.--,--.--,--.--,--.--,--.--,--.--,0.0000000,0.0000000,31NAA 66021 00000,100.0,0.0,0.0,1,0,--.--,--.--,,--.--,--.--,--.--,0,0,--.--,--.--,0,--.--,--.--,--.--,--.--,--.--,--.--,--.--,--.--,--.--,--.--,--.--,--.--,--.--,--.--,--.--,--.--,--.--,--.--,112.51,57.06,--.--,0,0,0.0,0.1,0.0,0,1,0,--.--,--.--,--.--
2022-08-15 10:49:54.780,1.7,3.0,84,0.0,0.0,0.0,0.0,0.0,0.000,-0.0,-1.0,1.3,-0.340,-0.369,0.000,0.0,00:00:42,--.--,0,--.--,--.--,--.--,50,0000:00:00,0,1,0,0,30,0,2,--.--,0,0,0,--.--,4.12,3076,--.--,80,--.--,--:--:--,0,--.--,10:49:54,8/15/2022,--.--,--.--,--.--,--.--,--.--,--.--,--.--,--.--,--.--,--.--,--.--,--.--,0,0.000,0.000,0.000,0.000,0.000,0.000,0.000,0.000,0.000,0.000,0.000,0.000,false,false,false,false,false,false,false,false,false,false,false,false,--.--,--.--,--.--,--.--,--.--,--.--,--.--,--.--,0.0000000,0.0000000,31NAA 66021 00000,100.0,0.0,0.0,1,0,--.--,--.--,,--.--,--.--,--.--,0,0,--.--,--.--,0,--.--,--.--,--.--,--.--,--.--,--.--,--.--,--.--,--.--,--.--,--.--,--.--,--.--,--.--,--.--,--.--,--.--,--.--,112.53,57.04,--.--,0,0,0.3,0.2,0.1,0,1,0,--.--,--.--,--.--
2022-08-15 10:49:55.778,-1.1,2.3,125,0.0,0.0,0.0,0.0,0.0,0.000,0.0,-1.1,1.2,-0.390,-0.387,0.000,0.0,00:00:43,--.--,0,--.--,--.--,--.--,48,0000:00:00,0,1,0,0,30,0,2,--.--,0,0,0,--.--,0.97,3077,--.--,80,--.--,--:--:--,0,--.--,10:49:55,8/15/2022,--.--,--.--,--.--,--.--,--.--,--.--,--.--,--.--,--.--,--.--,--.--,--.--,0,0.000,0.000,0.000,0.000,0.000,0.000,0.000,0.000,0.000,0.000,0.000,0.000,false,false,false,false,false,false,false,false,false,false,false,false,--.--,--.--,--.--,--.--,--.--,--.--,--.--,--.--,0.0000000,0.0000000,31NAA 66021 00000,100.0,0.0,0.0,1,0,--.--,--.--,,--.--,--.--,--.--,0,0,--.--,--.--,0,--.--,--.--,--.--,--.--,--.--,--.--,--.--,--.--,--.--,--.--,--.--,--.--,--.--,--.--,--.--,--.--,--.--,--.--,112.55,56.98,--.--,0,0,0.1,0.1,0.1,0,1,0,--.--,--.--,--.--
2022-08-15 10:49:56.776,-1.1,3.2,130,0.0,0.0,0.0,0.0,0.0,0.000,0.1,-1.1,1.1,-0.400,-0.419,0.000,0.0,00:00:44,--.--,0,--.--,--.--,--.--,48,0000:00:00,0,1,0,0,30,0,2,--.--,0,0,0,--.--,1.05,3077,--.--,80,--.--,--:--:--,0,--.--,10:49:56,8/15/2022,--.--,--.--,--.--,--.--,--.--,--.--,--.--,--.--,--.--,--.--,--.--,--.--,0,0.000,0.000,0.000,0.000,0.000,0.000,0.000,0.000,0.000,0.000,0.000,0.000,false,false,false,false,false,false,false,false,false,false,false,false,--.--,--.--,--.--,--.--,--.--,--.--,--.--,--.--,0.0000000,0.0000000,31NAA 66021 00000,100.0,0.0,0.0,1,0,--.--,--.--,,--.--,--.--,--.--,0,0,--.--,--.--,0,--.--,--.--,--.--,--.--,--.--,--.--,--.--,--.--,--.--,--.--,--.--,--.--,--.--,--.--,--.--,--.--,--.--,--.--,112.57,56.97,--.--,0,0,0.2,0.3,0.2,0,1,0,--.--,--.--,--.--
2022-08-15 10:49:57.786,-1.0,1.6,104,0.0,0.0,0.0,0.0,0.0,0.000,0.0,-1.1,1.1,-0.400,-0.422,0.000,0.0,00:00:45,--.--,0,--.--,--.--,--.--,49,0000:00:00,0,1,0,0,30,0,2,--.--,0,0,0,--.--,0.94,3077,--.--,80,--.--,--:--:--,0,--.--,10:49:57,8/15/2022,--.--,--.--,--.--,--.--,--.--,--.--,--.--,--.--,--.--,--.--,--.--,--.--,0,0.000,0.000,0.000,0.000,0.000,0.000,0.000,0.000,0.000,0.000,0.000,0.000,false,false,false,false,false,false,false,false,false,false,false,false,--.--,--.--,--.--,--.--,--.--,--.--,--.--,--.--,0.0000000,0.0000000,31NAA 66021 00000,100.0,0.0,0.0,1,0,--.--,--.--,,--.--,--.--,--.--,0,0,--.--,--.--,0,--.--,--.--,--.--,--.--,--.--,--.--,--.--,--.--,--.--,--.--,--.--,--.--,--.--,--.--,--.--,--.--,--.--,--.--,112.60,56.93,--.--,0,0,0.1,0.1,0.1,0,1,0,--.--,--.--,--.--
2022-08-15 10:49:58.779,-2.5,2.8,91,0.0,0.0,0.0,0.0,0.0,0.000,0.2,-1.2,1.1,-0.400,-0.438,0.000,0.0,00:00:46,--.--,0,--.--,--.--,--.--,46,0000:00:00,0,1,0,0,30,0,2,--.--,0,0,0,--.--,1.43,3078,--.--,80,--.--,--:--:--,0,--.--,10:49:58,8/15/2022,--.--,--.--,--.--,--.--,--.--,--.--,--.--,--.--,--.--,--.--,--.--,--.--,0,0.000,0.000,0.000,0.000,0.000,0.000,0.000,0.000,0.000,0.000,0.000,0.000,false,false,false,false,false,false,false,false,false,false,false,false,--.--,--.--,--.--,--.--,--.--,--.--,--.--,--.--,0.0000000,0.0000000,31NAA 66021 00000,100.0,0.0,0.0,1,0,--.--,--.--,,--.--,--.--,--.--,0,0,--.--,--.--,0,--.--,--.--,--.--,--.--,--.--,--.--,--.--,--.--,--.--,--.--,--.--,--.--,--.--,--.--,--.--,--.--,--.--,--.--,112.60,56.89,--.--,0,0,0.2,0.1,0.2,0,1,0,--.--,--.--,--.--
2022-08-15 10:49:59.794,0.9,-5.2,83,0.0,0.0,0.0,0.0,0.0,0.000,0.0,-1.0,1.3,-0.360,-0.327,0.000,0.0,00:00:47,--.--,0,--.--,--.--,--.--,44,0000:00:00,0,1,0,0,30,0,2,--.--,0,0,0,--.--,1.88,3079,--.--,80,--.--,--:--:--,0,--.--,10:49:59,8/15/2022,--.--,--.--,--.--,--.--,--.--,--.--,--.--,--.--,--.--,--.--,--.--,--.--,0,0.000,0.000,0.000,0.000,0.000,0.000,0.000,0.000,0.000,0.000,0.000,0.000,false,false,false,false,false,false,false,false,false,false,false,false,--.--,--.--,--.--,--.--,--.--,--.--,--.--,--.--,0.0000000,0.0000000,31NAA 66021 00000,100.0,0.0,0.0,1,0,--.--,--.--,,--.--,--.--,--.--,0,0,--.--,--.--,0,--.--,--.--,--.--,--.--,--.--,--.--,--.--,--.--,--.--,--.--,--.--,--.--,--.--,--.--,--.--,--.--,--.--,--.--,112.64,56.82,--.--,0,0,0.5,0.5,0.3,0,1,0,--.--,--.--,--.--
2022-08-15 10:50:00.790,-0.3,2.0,71,0.0,0.0,0.0,0.0,0.0,0.000,0.0,-1.2,1.1,-0.400,-0.431,0.000,0.0,00:00:48,--.--,0,--.--,--.--,--.--,49,0000:00:00,0,1,0,0,30,0,2,--.--,0,0,0,--.--,0.97,3079,--.--,80,--.--,--:--:--,0,--.--,10:50:00,8/15/2022,--.--,--.--,--.--,--.--,--.--,--.--,--.--,--.--,--.--,--.--,--.--,--.--,0,0.000,0.000,0.000,0.000,0.000,0.000,0.000,0.000,0.000,0.000,0.000,0.000,false,false,false,false,false,false,false,false,false,false,false,false,--.--,--.--,--.--,--.--,--.--,--.--,--.--,--.--,0.0000000,0.0000000,31NAA 66021 00000,100.0,0.0,0.0,1,0,--.--,--.--,,--.--,--.--,--.--,0,0,--.--,--.--,0,--.--,--.--,--.--,--.--,--.--,--.--,--.--,--.--,--.--,--.--,--.--,--.--,--.--,--.--,--.--,--.--,--.--,--.--,112.66,56.80,--.--,0,0,0.1,0.1,0.1,0,1,0,--.--,--.--,--.--
2022-08-15 10:50:01.814,-5.4,3.8,68,0.0,0.0,0.0,0.0,0.0,0.000,0.3,-1.3,1.0,-0.440,-0.517,0.000,0.0,00:00:49,--.--,0,--.--,--.--,--.--,51,0000:00:00,0,1,0,0,30,0,2,--.--,0,0,0,--.--,1.55,3080,--.--,80,--.--,--:--:--,0,--.--,10:50:01,8/15/2022,--.--,--.--,--.--,--.--,--.--,--.--,--.--,--.--,--.--,--.--,--.--,--.--,0,0.000,0.000,0.000,0.000,0.000,0.000,0.000,0.000,0.000,0.000,0.000,0.000,false,false,false,false,false,false,false,false,false,false,false,false,--.--,--.--,--.--,--.--,--.--,--.--,--.--,--.--,0.0000000,0.0000000,31NAA 66021 00000,100.0,0.0,0.0,1,0,--.--,--.--,,--.--,--.--,--.--,0,0,--.--,--.--,0,--.--,--.--,--.--,--.--,--.--,--.--,--.--,--.--,--.--,--.--,--.--,--.--,--.--,--.--,--.--,--.--,--.--,--.--,112.68,56.79,--.--,0,0,0.8,0.5,0.6,0,1,0,--.--,--.--,--.--
2022-08-15 10:50:02.828,2.9,-2.6,70,0.0,0.0,0.0,0.0,0.0,0.000,0.0,-1.1,1.1,-0.390,-0.404,0.000,0.0,00:00:50,--.--,0,--.--,--.--,--.--,49,0000:00:00,0,1,0,0,30,0,2,--.--,0,0,0,--.--,0.89,3080,--.--,80,--.--,--:--:--,0,--.--,10:50:02,8/15/2022,--.--,--.--,--.--,--.--,--.--,--.--,--.--,--.--,--.--,--.--,--.--,--.--,0,0.000,0.000,0.000,0.000,0.000,0.000,0.000,0.000,0.000,0.000,0.000,0.000,false,false,false,false,false,false,false,false,false,false,false,false,--.--,--.--,--.--,--.--,--.--,--.--,--.--,--.--,0.0000000,0.0000000,31NAA 66021 00000,100.0,0.0,0.0,1,0,--.--,--.--,,--.--,--.--,--.--,0,0,--.--,--.--,0,--.--,--.--,--.--,--.--,--.--,--.--,--.--,--.--,--.--,--.--,--.--,--.--,--.--,--.--,--.--,--.--,--.--,--.--,112.69,56.75,--.--,0,0,0.1,0.1,0.1,0,1,0,--.--,--.--,--.--
2022-08-15 10:50:03.823,0.0,1.4,63,0.0,0.0,0.0,0.0,0.0,0.000,0.1,-1.1,1.1,-0.390,-0.400,0.000,0.0,00:00:51,--.--,0,--.--,--.--,--.--,47,0000:00:00,0,1,0,0,30,0,2,--.--,0,0,0,--.--,2.23,3080,--.--,80,--.--,--:--:--,0,--.--,10:50:03,8/15/2022,--.--,--.--,--.--,--.--,--.--,--.--,--.--,--.--,--.--,--.--,--.--,--.--,0,0.000,0.000,0.000,0.000,0.000,0.000,0.000,0.000,0.000,0.000,0.000,0.000,false,false,false,false,false,false,false,false,false,false,false,false,--.--,--.--,--.--,--.--,--.--,--.--,--.--,--.--,0.0000000,0.0000000,31NAA 66021 00000,100.0,0.0,0.0,1,0,--.--,--.--,,--.--,--.--,--.--,0,0,--.--,--.--,0,--.--,--.--,--.--,--.--,--.--,--.--,--.--,--.--,--.--,--.--,--.--,--.--,--.--,--.--,--.--,--.--,--.--,--.--,112.71,56.75,--.--,0,0,0.2,0.3,0.2,0,1,0,--.--,--.--,--.--
2022-08-15 10:50:04.841,0.1,-2.2,65,0.0,0.0,0.0,0.0,0.0,0.000,0.1,-1.0,1.2,-0.370,-0.361,0.000,0.0,00:00:52,--.--,0,--.--,--.--,--.--,45,0000:00:00,0,1,0,0,30,0,2,--.--,0,0,0,--.--,1.02,3081,--.--,80,--.--,--:--:--,0,--.--,10:50:04,8/15/2022,--.--,--.--,--.--,--.--,--.--,--.--,--.--,--.--,--.--,--.--,--.--,--.--,0,0.000,0.000,0.000,0.000,0.000,0.000,0.000,0.000,0.000,0.000,0.000,0.000,false,false,false,false,false,false,false,false,false,false,false,false,--.--,--.--,--.--,--.--,--.--,--.--,--.--,--.--,0.0000000,0.0000000,31NAA 66021 00000,100.0,0.0,0.0,1,0,--.--,--.--,,--.--,--.--,--.--,0,0,--.--,--.--,0,--.--,--.--,--.--,--.--,--.--,--.--,--.--,--.--,--.--,--.--,--.--,--.--,--.--,--.--,--.--,--.--,--.--,--.--,112.73,56.75,--.--,0,0,0.1,0.1,0.1,0,1,0,--.--,--.--,--.--
2022-08-15 10:50:05.842,0.3,1.0,61,0.0,0.0,0.0,0.0,0.0,0.000,0.0,-1.2,1.1,-0.410,-0.430,0.000,0.0,00:00:53,--.--,0,--.--,--.--,--.--,52,0000:00:00,0,1,0,0,30,0,2,--.--,0,0,0,--.--,1.23,3081,--.--,80,--.--,--:--:--,0,--.--,10:50:05,8/15/2022,--.--,--.--,--.--,--.--,--.--,--.--,--.--,--.--,--.--,--.--,--.--,--.--,0,0.000,0.000,0.000,0.000,0.000,0.000,0.000,0.000,0.000,0.000,0.000,0.000,false,false,false,false,false,false,false,false,false,false,false,false,--.--,--.--,--.--,--.--,--.--,--.--,--.--,--.--,0.0000000,0.0000000,31NAA 66021 00000,100.0,0.0,0.0,1,0,--.--,--.--,,--.--,--.--,--.--,0,0,--.--,--.--,0,--.--,--.--,--.--,--.--,--.--,--.--,--.--,--.--,--.--,--.--,--.--,--.--,--.--,--.--,--.--,--.--,--.--,--.--,112.75,56.71,--.--,0,0,0.1,0.1,0.1,0,1,0,--.--,--.--,--.--
2022-08-15 10:50:06.845,-0.2,1.0,62,0.0,0.0,0.0,0.0,0.0,0.000,0.1,-1.1,1.2,-0.380,-0.383,0.000,0.0,00:00:54,--.--,0,--.--,--.--,--.--,46,0000:00:00,0,1,0,0,30,0,2,--.--,0,0,0,--.--,1.41,3082,--.--,80,--.--,--:--:--,0,--.--,10:50:06,8/15/2022,--.--,--.--,--.--,--.--,--.--,--.--,--.--,--.--,--.--,--.--,--.--,--.--,0,0.000,0.000,0.000,0.000,0.000,0.000,0.000,0.000,0.000,0.000,0.000,0.000,false,false,false,false,false,false,false,false,false,false,false,false,--.--,--.--,--.--,--.--,--.--,--.--,--.--,--.--,0.0000000,0.0000000,31NAA 66021 00000,100.0,0.0,0.0,1,0,--.--,--.--,,--.--,--.--,--.--,0,0,--.--,--.--,0,--.--,--.--,--.--,--.--,--.--,--.--,--.--,--.--,--.--,--.--,--.--,--.--,--.--,--.--,--.--,--.--,--.--,--.--,112.77,56.71,--.--,0,0,0.1,0.1,0.1,0,1,0,--.--,--.--,--.--
2022-08-15 10:50:07.840,0.4,-1.0,62,0.0,0.0,0.0,0.0,0.0,0.000,0.0,-1.1,1.1,-0.390,-0.403,0.000,0.0,00:00:55,--.--,0,--.--,--.--,--.--,50,0000:00:00,0,1,0,0,30,0,2,--.--,0,0,0,--.--,1.06,3082,--.--,80,--.--,--:--:--,0,--.--,10:50:07,8/15/2022,--.--,--.--,--.--,--.--,--.--,--.--,--.--,--.--,--.--,--.--,--.--,--.--,0,0.000,0.000,0.000,0.000,0.000,0.000,0.000,0.000,0.000,0.000,0.000,0.000,false,false,false,false,false,false,false,false,false,false,false,false,--.--,--.--,--.--,--.--,--.--,--.--,--.--,--.--,0.0000000,0.0000000,31NAA 66021 00000,100.0,0.0,0.0,1,0,--.--,--.--,,--.--,--.--,--.--,0,0,--.--,--.--,0,--.--,--.--,--.--,--.--,--.--,--.--,--.--,--.--,--.--,--.--,--.--,--.--,--.--,--.--,--.--,--.--,--.--,--.--,112.78,56.68,--.--,0,0,0.1,0.1,0.0,0,1,0,--.--,--.--,--.--
2022-08-15 10:50:08.856,-0.0,-1.4,63,0.0,0.0,0.0,0.0,0.0,0.000,0.1,-1.0,1.2,-0.360,-0.340,0.000,0.0,00:00:56,--.--,0,--.--,--.--,--.--,43,0000:00:00,0,1,0,0,30,0,2,--.--,0,0,0,--.--,1.52,3082,--.--,80,--.--,--:--:--,0,--.--,10:50:08,8/15/2022,--.--,--.--,--.--,--.--,--.--,--.--,--.--,--.--,--.--,--.--,--.--,--.--,0,0.000,0.000,0.000,0.000,0.000,0.000,0.000,0.000,0.000,0.000,0.000,0.000,false,false,false,false,false,false,false,false,false,false,false,false,--.--,--.--,--.--,--.--,--.--,--.--,--.--,--.--,0.0000000,0.0000000,31NAA 66021 00000,100.0,0.0,0.0,1,0,--.--,--.--,,--.--,--.--,--.--,0,0,--.--,--.--,0,--.--,--.--,--.--,--.--,--.--,--.--,--.--,--.--,--.--,--.--,--.--,--.--,--.--,--.--,--.--,--.--,--.--,--.--,112.80,56.68,--.--,0,0,0.1,0.1,0.1,0,1,0,--.--,--.--,--.--
2022-08-15 10:50:09.857,1.7,0.3,62,0.0,0.0,0.0,0.0,0.0,0.000,-0.0,-1.2,1.1,-0.410,-0.445,0.000,0.0,00:00:57,--.--,0,--.--,--.--,--.--,53,0000:00:00,0,1,0,0,30,0,2,--.--,0,0,0,--.--,1.28,3083,--.--,80,--.--,--:--:--,0,--.--,10:50:09,8/15/2022,--.--,--.--,--.--,--.--,--.--,--.--,--.--,--.--,--.--,--.--,--.--,--.--,0,0.000,0.000,0.000,0.000,0.000,0.000,0.000,0.000,0.000,0.000,0.000,0.000,false,false,false,false,false,false,false,false,false,false,false,false,--.--,--.--,--.--,--.--,--.--,--.--,--.--,--.--,0.0000000,0.0000000,31NAA 66021 00000,100.0,0.0,0.0,1,0,--.--,--.--,,--.--,--.--,--.--,0,0,--.--,--.--,0,--.--,--.--,--.--,--.--,--.--,--.--,--.--,--.--,--.--,--.--,--.--,--.--,--.--,--.--,--.--,--.--,--.--,--.--,112.82,56.66,--.--,0,0,0.2,0.3,0.1,0,1,0,--.--,--.--,--.--
2022-08-15 10:50:10.854,-0.9,1.0,63,0.0,0.0,0.0,0.0,0.0,0.000,0.2,-1.0,1.2,-0.370,-0.359,0.000,0.0,00:00:58,--.--,0,--.--,--.--,--.--,43,0000:00:00,0,1,0,0,30,0,2,--.--,0,0,0,--.--,1.51,3083,--.--,80,--.--,--:--:--,0,--.--,10:50:10,8/15/2022,--.--,--.--,--.--,--.--,--.--,--.--,--.--,--.--,--.--,--.--,--.--,--.--,0,0.000,0.000,0.000,0.000,0.000,0.000,0.000,0.000,0.000,0.000,0.000,0.000,false,false,false,false,false,false,false,false,false,false,false,false,--.--,--.--,--.--,--.--,--.--,--.--,--.--,--.--,0.0000000,0.0000000,31NAA 66021 00000,100.0,0.0,0.0,1,0,--.--,--.--,,--.--,--.--,--.--,0,0,--.--,--.--,0,--.--,--.--,--.--,--.--,--.--,--.--,--.--,--.--,--.--,--.--,--.--,--.--,--.--,--.--,--.--,--.--,--.--,--.--,112.84,56.66,--.--,0,0,0.1,0.1,0.1,0,1,0,--.--,--.--,--.--
2022-08-15 10:50:11.858,1.0,-0.5,63,0.0,0.0,0.0,0.0,0.0,0.000,0.0,-1.1,1.1,-0.400,-0.410,0.000,0.0,00:00:59,--.--,0,--.--,--.--,--.--,49,0000:00:00,0,1,0,0,30,0,2,--.--,0,0,0,--.--,0.85,3083,--.--,80,--.--,--:--:--,0,--.--,10:50:11,8/15/2022,--.--,--.--,--.--,--.--,--.--,--.--,--.--,--.--,--.--,--.--,--.--,--.--,0,0.000,0.000,0.000,0.000,0.000,0.000,0.000,0.000,0.000,0.000,0.000,0.000,false,false,false,false,false,false,false,false,false,false,false,false,--.--,--.--,--.--,--.--,--.--,--.--,--.--,--.--,0.0000000,0.0000000,31NAA 66021 00000,100.0,0.0,0.0,1,0,--.--,--.--,,--.--,--.--,--.--,0,0,--.--,--.--,0,--.--,--.--,--.--,--.--,--.--,--.--,--.--,--.--,--.--,--.--,--.--,--.--,--.--,--.--,--.--,--.--,--.--,--.--,112.86,56.66,--.--,0,0,0.1,0.1,0.1,0,1,0,--.--,--.--,--.--
2022-08-15 10:50:12.855,-0.7,1.3,64,0.0,0.0,0.0,0.0,0.0,0.000,0.0,-1.1,1.1,-0.390,-0.405,0.000,0.0,00:01:00,--.--,0,--.--,--.--,--.--,49,0000:00:00,0,1,0,0,30,0,2,--.--,0,0,0,--.--,0.90,3084,--.--,80,--.--,--:--:--,0,--.--,10:50:12,8/15/2022,--.--,--.--,--.--,--.--,--.--,--.--,--.--,--.--,--.--,--.--,--.--,--.--,0,0.000,0.000,0.000,0.000,0.000,0.000,0.000,0.000,0.000,0.000,0.000,0.000,false,false,false,false,false,false,false,false,false,false,false,false,--.--,--.--,--.--,--.--,--.--,--.--,--.--,--.--,0.0000000,0.0000000,31NAA 66021 00000,100.0,0.0,0.0,1,0,--.--,--.--,,--.--,--.--,--.--,0,0,--.--,--.--,0,--.--,--.--,--.--,--.--,--.--,--.--,--.--,--.--,--.--,--.--,--.--,--.--,--.--,--.--,--.--,--.--,--.--,--.--,112.87,56.64,--.--,0,0,0.0,0.1,0.0,0,1,0,--.--,--.--,--.--
2022-08-15 10:50:13.856,0.1,-0.5,64,0.0,0.0,0.0,0.0,0.0,0.000,0.0,-1.1,1.1,-0.390,-0.388,0.000,0.0,00:01:01,--.--,0,--.--,--.--,--.--,48,0000:00:00,0,1,0,0,30,0,2,--.--,0,0,0,--.--,0.86,3084,--.--,80,--.--,--:--:--,0,--.--,10:50:13,8/15/2022,--.--,--.--,--.--,--.--,--.--,--.--,--.--,--.--,--.--,--.--,--.--,--.--,0,0.000,0.000,0.000,0.000,0.000,0.000,0.000,0.000,0.000,0.000,0.000,0.000,false,false,false,false,false,false,false,false,false,false,false,false,--.--,--.--,--.--,--.--,--.--,--.--,--.--,--.--,0.0000000,0.0000000,31NAA 66021 00000,100.0,0.0,0.0,1,0,--.--,--.--,,--.--,--.--,--.--,0,0,--.--,--.--,0,--.--,--.--,--.--,--.--,--.--,--.--,--.--,--.--,--.--,--.--,--.--,--.--,--.--,--.--,--.--,--.--,--.--,--.--,112.89,56.64,--.--,0,0,0.1,0.1,0.0,0,1,0,--.--,--.--,--.--
2022-08-15 10:50:14.871,-0.4,0.2,64,0.0,0.0,0.0,0.0,0.0,0.000,0.1,-1.0,1.2,-0.370,-0.378,0.000,0.0,00:01:02,--.--,0,--.--,--.--,--.--,45,0000:00:00,0,1,0,0,30,0,2,--.--,0,0,0,--.--,1.32,3084,--.--,80,--.--,--:--:--,0,--.--,10:50:14,8/15/2022,--.--,--.--,--.--,--.--,--.--,--.--,--.--,--.--,--.--,--.--,--.--,--.--,0,0.000,0.000,0.000,0.000,0.000,0.000,0.000,0.000,0.000,0.000,0.000,0.000,false,false,false,false,false,false,false,false,false,false,false,false,--.--,--.--,--.--,--.--,--.--,--.--,--.--,--.--,0.0000000,0.0000000,31NAA 66021 00000,100.0,0.0,0.0,1,0,--.--,--.--,,--.--,--.--,--.--,0,0,--.--,--.--,0,--.--,--.--,--.--,--.--,--.--,--.--,--.--,--.--,--.--,--.--,--.--,--.--,--.--,--.--,--.--,--.--,--.--,--.--,112.91,56.64,--.--,0,0,0.1,0.1,0.1,0,1,0,--.--,--.--,--.--
2022-08-15 10:50:15.869,0.7,0.8,68,0.0,0.0,0.0,0.0,0.0,0.000,-0.0,-1.2,1.0,-0.420,-0.410,0.000,0.0,00:01:03,--.--,0,--.--,--.--,--.--,35,0000:00:00,0,1,0,0,30,0,2,--.--,0,0,0,--.--,0.66,3084,--.--,80,--.--,--:--:--,0,--.--,10:50:15,8/15/2022,--.--,--.--,--.--,--.--,--.--,--.--,--.--,--.--,--.--,--.--,--.--,--.--,0,0.000,0.000,0.000,0.000,0.000,0.000,0.000,0.000,0.000,0.000,0.000,0.000,false,false,false,false,false,false,false,false,false,false,false,false,--.--,--.--,--.--,--.--,--.--,--.--,--.--,--.--,0.0000000,0.0000000,31NAA 66021 00000,100.0,0.0,0.0,1,0,--.--,--.--,,--.--,--.--,--.--,0,0,--.--,--.--,0,--.--,--.--,--.--,--.--,--.--,--.--,--.--,--.--,--.--,--.--,--.--,--.--,--.--,--.--,--.--,--.--,--.--,--.--,112.93,56.61,--.--,0,0,0.1,0.1,0.1,0,1,0,--.--,--.--,--.--
2022-08-15 10:50:16.868,2.1,-8.1,67,0.0,0.0,0.0,0.0,0.0,0.000,-0.2,-1.4,0.8,-0.480,-0.480,0.000,0.0,00:01:04,--.--,0,--.--,--.--,--.--,35,0000:00:00,0,1,0,0,30,0,2,--.--,0,0,0,--.--,3.74,3086,--.--,80,--.--,--:--:--,0,--.--,10:50:16,8/15/2022,--.--,--.--,--.--,--.--,--.--,--.--,--.--,--.--,--.--,--.--,--.--,--.--,0,0.000,0.000,0.000,0.000,0.000,0.000,0.000,0.000,0.000,0.000,0.000,0.000,false,false,false,false,false,false,false,false,false,false,false,false,--.--,--.--,--.--,--.--,--.--,--.--,--.--,--.--,0.0000000,0.0000000,31NAA 66021 00000,100.0,0.0,0.0,1,0,--.--,--.--,,--.--,--.--,--.--,0,0,--.--,--.--,0,--.--,--.--,--.--,--.--,--.--,--.--,--.--,--.--,--.--,--.--,--.--,--.--,--.--,--.--,--.--,--.--,--.--,--.--,112.95,56.61,--.--,0,0,0.6,0.5,0.4,0,1,0,--.--,--.--,--.--
2022-08-15 10:50:17.869,1.7,-4.1,67,0.0,0.0,0.0,0.0,0.0,0.000,-0.4,-2.0,0.2,-0.670,-0.620,0.000,0.0,00:01:05,--.--,0,--.--,--.--,--.--,35,0000:00:00,0,1,0,0,30,0,2,--.--,0,0,0,--.--,7.73,3087,--.--,80,--.--,--:--:--,0,--.--,10:50:17,8/15/2022,--.--,--.--,--.--,--.--,--.--,--.--,--.--,--.--,--.--,--.--,--.--,--.--,0,0.000,0.000,0.000,0.000,0.000,0.000,0.000,0.000,0.000,0.000,0.000,0.000,false,false,false,false,false,false,false,false,false,false,false,false,--.--,--.--,--.--,--.--,--.--,--.--,--.--,--.--,0.0000000,0.0000000,31NAA 66021 00000,100.0,0.0,0.0,1,0,--.--,--.--,,--.--,--.--,--.--,0,0,--.--,--.--,0,--.--,--.--,--.--,--.--,--.--,--.--,--.--,--.--,--.--,--.--,--.--,--.--,--.--,--.--,--.--,--.--,--.--,--.--,112.96,56.61,--.--,0,0,1.1,0.7,0.7,0,1,0,--.--,--.--,--.--
2022-08-15 10:50:18.869,1.2,-2.8,68,0.0,0.0,0.0,0.0,0.0,0.000,-0.4,-2.6,-0.4,-0.870,-0.840,0.000,0.0,00:01:06,--.--,0,--.--,--.--,--.--,35,0000:00:00,0,1,0,0,30,0,2,--.--,0,0,0,--.--,8.27,3089,--.--,80,--.--,--:--:--,0,--.--,10:50:18,8/15/2022,--.--,--.--,--.--,--.--,--.--,--.--,--.--,--.--,--.--,--.--,--.--,--.--,0,0.000,0.000,0.000,0.000,0.000,0.000,0.000,0.000,0.000,0.000,0.000,0.000,false,false,false,false,false,false,false,false,false,false,false,false,--.--,--.--,--.--,--.--,--.--,--.--,--.--,--.--,0.0000000,0.0000000,31NAA 66021 00000,100.0,0.0,0.0,1,0,--.--,--.--,,--.--,--.--,--.--,0,0,--.--,--.--,0,--.--,--.--,--.--,--.--,--.--,--.--,--.--,--.--,--.--,--.--,--.--,--.--,--.--,--.--,--.--,--.--,--.--,--.--,112.98,56.61,--.--,0,0,1.6,1.7,1.0,0,1,0,--.--,--.--,--.--
2022-08-15 10:50:19.869,0.4,-1.5,66,0.0,0.0,0.0,0.0,0.0,0.000,-0.6,-3.6,-1.4,-1.160,-1.130,0.000,0.0,00:01:07,--.--,0,--.--,--.--,--.--,35,0000:00:00,0,1,0,0,30,0,2,--.--,0,0,0,--.--,3.28,3090,--.--,80,--.--,--:--:--,0,--.--,10:50:19,8/15/2022,--.--,--.--,--.--,--.--,--.--,--.--,--.--,--.--,--.--,--.--,--.--,--.--,0,0.000,0.000,0.000,0.000,0.000,0.000,0.000,0.000,0.000,0.000,0.000,0.000,false,false,false,false,false,false,false,false,false,false,false,false,--.--,--.--,--.--,--.--,--.--,--.--,--.--,--.--,0.0000000,0.0000000,31NAA 66021 00000,100.0,0.0,0.0,1,0,--.--,--.--,,--.--,--.--,--.--,0,0,--.--,--.--,0,--.--,--.--,--.--,--.--,--.--,--.--,--.--,--.--,--.--,--.--,--.--,--.--,--.--,--.--,--.--,--.--,--.--,--.--,113.00,56.59,--.--,0,0,0.2,0.5,0.2,0,1,0,--.--,--.--,--.--
2022-08-15 10:50:20.869,0.4,-1.3,65,0.0,0.0,0.0,0.0,0.0,0.000,-0.4,-4.4,-2.1,-1.390,-1.370,0.000,0.0,00:01:08,--.--,0,--.--,--.--,--.--,35,0000:00:00,0,1,0,0,30,0,2,--.--,0,0,0,--.--,3.25,3091,--.--,80,--.--,--:--:--,0,--.--,10:50:20,8/15/2022,--.--,--.--,--.--,--.--,--.--,--.--,--.--,--.--,--.--,--.--,--.--,--.--,0,0.000,0.000,0.000,0.000,0.000,0.000,0.000,0.000,0.000,0.000,0.000,0.000,false,false,false,false,false,false,false,false,false,false,false,false,--.--,--.--,--.--,--.--,--.--,--.--,--.--,--.--,0.0000000,0.0000000,31NAA 66021 00000,100.0,0.0,0.0,1,0,--.--,--.--,,--.--,--.--,--.--,0,0,--.--,--.--,0,--.--,--.--,--.--,--.--,--.--,--.--,--.--,--.--,--.--,--.--,--.--,--.--,--.--,--.--,--.--,--.--,--.--,--.--,113.02,56.59,--.--,0,0,0.1,0.4,0.2,0,1,0,--.--,--.--,--.--
2022-08-15 10:50:21.884,-0.1,-0.2,68,0.0,0.0,0.0,0.0,0.0,0.000,-0.5,-5.2,-2.9,-1.640,-1.640,0.000,0.0,00:01:09,--.--,0,--.--,--.--,--.--,35,0000:00:00,0,1,0,0,30,0,2,--.--,0,0,0,--.--,3.18,3092,--.--,80,--.--,--:--:--,0,--.--,10:50:21,8/15/2022,--.--,--.--,--.--,--.--,--.--,--.--,--.--,--.--,--.--,--.--,--.--,--.--,0,0.000,0.000,0.000,0.000,0.000,0.000,0.000,0.000,0.000,0.000,0.000,0.000,false,false,false,false,false,false,false,false,false,false,false,false,--.--,--.--,--.--,--.--,--.--,--.--,--.--,--.--,0.0000000,0.0000000,31NAA 66021 00000,100.0,0.0,0.0,1,0,--.--,--.--,,--.--,--.--,--.--,0,0,--.--,--.--,0,--.--,--.--,--.--,--.--,--.--,--.--,--.--,--.--,--.--,--.--,--.--,--.--,--.--,--.--,--.--,--.--,--.--,--.--,113.04,56.57,--.--,0,0,0.2,0.5,0.2,0,1,0,--.--,--.--,--.--
2022-08-15 10:50:22.892,-0.4,0.1,69,0.0,0.0,0.0,0.0,0.0,0.000,-0.5,-6.0,-3.8,-1.880,-1.880,0.000,0.0,00:01:10,--.--,0,--.--,--.--,--.--,35,0000:00:00,0,1,0,0,30,0,2,--.--,0,0,0,--.--,3.13,3093,--.--,80,--.--,--:--:--,0,--.--,10:50:22,8/15/2022,--.--,--.--,--.--,--.--,--.--,--.--,--.--,--.--,--.--,--.--,--.--,--.--,0,0.000,0.000,0.000,0.000,0.000,0.000,0.000,0.000,0.000,0.000,0.000,0.000,false,false,false,false,false,false,false,false,false,false,false,false,--.--,--.--,--.--,--.--,--.--,--.--,--.--,--.--,0.0000000,0.0000000,31NAA 66021 00000,100.0,0.0,0.0,1,0,--.--,--.--,,--.--,--.--,--.--,0,0,--.--,--.--,0,--.--,--.--,--.--,--.--,--.--,--.--,--.--,--.--,--.--,--.--,--.--,--.--,--.--,--.--,--.--,--.--,--.--,--.--,113.05,56.55,--.--,0,0,0.2,0.3,0.2,0,1,0,--.--,--.--,--.--
2022-08-15 10:50:23.888,0.0,-0.2,71,0.0,0.0,0.0,0.0,0.0,0.000,-0.5,-7.0,-4.7,-2.170,-2.120,0.000,0.0,00:01:11,--.--,0,--.--,--.--,--.--,35,0000:00:00,0,1,0,0,30,0,2,--.--,0,0,0,--.--,3.17,3093,--.--,80,--.--,--:--:--,0,--.--,10:50:23,8/15/2022,--.--,--.--,--.--,--.--,--.--,--.--,--.--,--.--,--.--,--.--,--.--,--.--,0,0.000,0.000,0.000,0.000,0.000,0.000,0.000,0.000,0.000,0.000,0.000,0.000,false,false,false,false,false,false,false,false,false,false,false,false,--.--,--.--,--.--,--.--,--.--,--.--,--.--,--.--,0.0000000,0.0000000,31NAA 66021 00000,100.0,0.0,0.0,1,0,--.--,--.--,,--.--,--.--,--.--,0,0,--.--,--.--,0,--.--,--.--,--.--,--.--,--.--,--.--,--.--,--.--,--.--,--.--,--.--,--.--,--.--,--.--,--.--,--.--,--.--,--.--,113.07,56.53,--.--,0,0,0.2,0.4,0.2,0,1,0,--.--,--.--,--.--
2022-08-15 10:50:24.886,-3.9,3.6,69,0.0,0.0,0.0,0.0,0.0,0.000,0.0,-7.4,-5.2,-2.320,-2.320,0.000,0.0,00:01:12,--.--,0,--.--,--.--,--.--,60,0000:00:00,0,1,0,0,30,0,2,--.--,0,0,0,--.--,1.62,3094,--.--,80,--.--,--:--:--,0,--.--,10:50:24,8/15/2022,--.--,--.--,--.--,--.--,--.--,--.--,--.--,--.--,--.--,--.--,--.--,--.--,0,0.000,0.000,0.000,0.000,0.000,0.000,0.000,0.000,0.000,0.000,0.000,0.000,false,false,false,false,false,false,false,false,false,false,false,false,--.--,--.--,--.--,--.--,--.--,--.--,--.--,--.--,0.0000000,0.0000000,31NAA 66021 00000,100.0,0.0,0.0,1,0,--.--,--.--,,--.--,--.--,--.--,0,0,--.--,--.--,0,--.--,--.--,--.--,--.--,--.--,--.--,--.--,--.--,--.--,--.--,--.--,--.--,--.--,--.--,--.--,--.--,--.--,--.--,113.09,56.52,--.--,0,0,0.1,0.1,0.1,0,1,0,--.--,--.--,--.--
