Timestamp,roll,pitch,heading,rollRate,pitchRate,yawRate,groundSpeed,airSpeed,airSpeedSetpoint,climbRate,altitudeRelative,altitudeAMSL,altitudeTuning,altitudeTuningSetpoint,xTrackError,flightDistance,flightTime,distanceToHome,missionItemIndex,headingToNextWP,headingToHome,distanceToGCS,throttlePct,hobbs,apmSubInfo.cameraTilt,apmSubInfo.tetherTurns,apmSubInfo.lights1,apmSubInfo.lights2,apmSubInfo.pilotGain,apmSubInfo.inputHold,apmSubInfo.rollPitchToggle,apmSubInfo.rangefinderDistance,battery0.id,battery0.batteryFunction,battery0.batteryType,battery0.voltage,battery0.current,battery0.mahConsumed,battery0.temperature,battery0.percentRemaining,battery0.timeRemaining,battery0.timeRemainingStr,battery0.chargeState,battery0.instantPower,clock.currentTime,clock.currentDate,distanceSensor.rotationNone,distanceSensor.rotationYaw45,distanceSensor.rotationYaw90,distanceSensor.rotationYaw135,distanceSensor.rotationYaw180,distanceSensor.rotationYaw225,distanceSensor.rotationYaw270,distanceSensor.rotationYaw315,distanceSensor.rotationPitch90,distanceSensor.rotationPitch270,distanceSensor.minDistance,distanceSensor.maxDistance,escStatus.index,escStatus.rpm1,escStatus.rpm2,escStatus.rpm3,escStatus.rpm4,escStatus.current1,escStatus.current2,escStatus.current3,escStatus.current4,escStatus.voltage1,escStatus.voltage2,escStatus.voltage3,escStatus.voltage4,estimatorStatus.goodAttitudeEsimate,estimatorStatus.goodHorizVelEstimate,estimatorStatus.goodVertVelEstimate,estimatorStatus.goodHorizPosRelEstimate,estimatorStatus.goodHorizPosAbsEstimate,estimatorStatus.goodVertPosAbsEstimate,estimatorStatus.goodVertPosAGLEstimate,estimatorStatus.goodConstPosModeEstimate,estimatorStatus.goodPredHorizPosRelEstimate,estimatorStatus.goodPredHorizPosAbsEstimate,estimatorStatus.gpsGlitch,estimatorStatus.accelError,estimatorStatus.velRatio,estimatorStatus.horizPosRatio,estimatorStatus.vertPosRatio,estimatorStatus.magRatio,estimatorStatus.haglRatio,estimatorStatus.tasRatio,estimatorStatus.horizPosAccuracy,estimatorStatus.vertPosAccuracy,gps.lat,gps.lon,gps.mgrs,gps.hdop,gps.vdop,gps.courseOverGround,gps.lock,gps.count,gps2.lat,gps2.lon,gps2.mgrs,gps2.hdop,gps2.vdop,gps2.courseOverGround,gps2.lock,gps2.count,hygrometer.temperature,hygrometer.humidity,hygrometer.hygrometerid,localPosition.x,localPosition.y,localPosition.z,localPosition.vx,localPosition.vy,localPosition.vz,localPositionSetpoint.x,localPositionSetpoint.y,localPositionSetpoint.z,localPositionSetpoint.vx,localPositionSetpoint.vy,localPositionSetpoint.vz,setpoint.roll,setpoint.pitch,setpoint.yaw,setpoint.rollRate,setpoint.pitchRate,setpoint.yawRate,temperature.temperature1,temperature.temperature2,temperature.temperature3,terrain.blocksPending,terrain.blocksLoaded,vibration.xAxis,vibration.yAxis,vibration.zAxis,vibration.clipCount1,vibration.clipCount2,vibration.clipCount3,wind.direction,wind.speed,wind.verticalSpeed
2022-08-15 09:46:44.903,5.3,-1.2,89,0.0,0.0,0.0,0.0,0.0,0.000,-0.0,0.0,-0.2,0.030,0.033,0.000,0.0,00:00:00,0.1,0,--.--,--.--,--.--,49,0000:00:00,50,0,0,0,40,0,2,--.--,0,0,0,--.--,0.48,165,--.--,98,--.--,--:--:--,0,--.--,09:46:44,8/15/2022,--.--,--.--,--.--,--.--,--.--,--.--,--.--,--.--,--.--,--.--,--.--,--.--,0,0.000,0.000,0.000,0.000,0.000,0.000,0.000,0.000,0.000,0.000,0.000,0.000,false,false,false,false,false,false,false,false,false,false,false,false,--.--,--.--,--.--,--.--,--.--,--.--,--.--,--.--,47.6197395,-122.3632507,10TET 47846 74233,1.0,1.0,0.0,3,10,--.--,--.--,,--.--,--.--,--.--,0,0,--.--,--.--,0,0.7,0.8,-0.2,0.3,0.3,0.0,--.--,--.--,--.--,--.--,--.--,--.--,--.--,--.--,--.--,--.--,--.--,--.--,99.18,62.94,--.--,0,0,0.1,0.1,0.1,0,0,0,--.--,--.--,--.--
2022-08-15 09:46:45.878,5.9,-1.4,89,0.0,0.0,0.0,0.0,0.0,0.000,-0.1,-0.1,-0.3,0.000,-0.035,0.000,0.0,00:00:01,0.1,0,--.--,--.--,--.--,49,0000:00:00,50,0,0,0,40,0,2,--.--,0,0,0,--.--,0.73,165,--.--,98,--.--,--:--:--,0,--.--,09:46:45,8/15/2022,--.--,--.--,--.--,--.--,--.--,--.--,--.--,--.--,--.--,--.--,--.--,--.--,0,0.000,0.000,0.000,0.000,0.000,0.000,0.000,0.000,0.000,0.000,0.000,0.000,false,false,false,false,false,false,false,false,false,false,false,false,--.--,--.--,--.--,--.--,--.--,--.--,--.--,--.--,47.6197395,-122.3632507,10TET 47846 74233,1.0,1.0,0.0,3,10,--.--,--.--,,--.--,--.--,--.--,0,0,--.--,--.--,0,0.7,0.8,-0.1,0.2,0.2,0.1,--.--,--.--,--.--,--.--,--.--,--.--,--.--,--.--,--.--,--.--,--.--,--.--,99.19,62.94,--.--,0,0,0.2,0.2,0.2,0,0,0,--.--,--.--,--.--
2022-08-15 09:46:46.896,6.7,-0.9,89,0.0,0.0,0.0,0.0,0.0,0.000,-0.1,-0.2,-0.3,-0.020,-0.075,0.000,0.0,00:00:01,0.1,0,--.--,--.--,--.--,50,0000:00:00,50,0,0,0,40,0,2,--.--,0,0,0,--.--,0.65,165,--.--,98,--.--,--:--:--,0,--.--,09:46:46,8/15/2022,--.--,--.--,--.--,--.--,--.--,--.--,--.--,--.--,--.--,--.--,--.--,--.--,0,0.000,0.000,0.000,0.000,0.000,0.000,0.000,0.000,0.000,0.000,0.000,0.000,false,false,false,false,false,false,false,false,false,false,false,false,--.--,--.--,--.--,--.--,--.--,--.--,--.--,--.--,47.6197395,-122.3632507,10TET 47846 74233,1.0,1.0,0.0,3,10,--.--,--.--,,--.--,--.--,--.--,0,0,--.--,--.--,0,0.7,0.8,-0.1,0.2,0.2,0.1,--.--,--.--,--.--,--.--,--.--,--.--,--.--,--.--,--.--,--.--,--.--,--.--,99.21,62.94,--.--,0,0,0.2,0.1,0.2,0,0,0,--.--,--.--,--.--
2022-08-15 09:46:47.895,4.7,-2.2,88,0.0,0.0,0.0,0.0,0.0,0.000,0.2,0.1,-0.0,0.060,0.101,0.000,0.0,00:00:02,0.2,0,--.--,--.--,--.--,49,0000:00:00,50,0,0,0,40,0,2,--.--,0,0,0,--.--,0.30,166,--.--,98,--.--,--:--:--,0,--.--,09:46:47,8/15/2022,--.--,--.--,--.--,--.--,--.--,--.--,--.--,--.--,--.--,--.--,--.--,--.--,0,0.000,0.000,0.000,0.000,0.000,0.000,0.000,0.000,0.000,0.000,0.000,0.000,false,false,false,false,false,false,false,false,false,false,false,false,--.--,--.--,--.--,--.--,--.--,--.--,--.--,--.--,47.6197395,-122.3632507,10TET 47846 74233,1.0,1.0,0.0,3,10,--.--,--.--,,--.--,--.--,--.--,0,0,--.--,--.--,0,0.6,0.7,-0.4,0.1,0.2,-0.2,--.--,--.--,--.--,--.--,--.--,--.--,--.--,--.--,--.--,--.--,--.--,--.--,99.23,62.94,--.--,0,0,0.2,0.2,0.2,0,0,0,--.--,--.--,--.--
2022-08-15 09:46:48.896,6.2,-1.4,88,0.0,0.0,0.0,0.0,0.0,0.000,-0.2,-0.1,-0.2,0.010,0.004,0.000,0.0,00:00:03,0.0,0,--.--,--.--,--.--,49,0000:00:00,50,0,30,0,40,0,2,--.--,0,0,0,--.--,0.50,166,--.--,98,--.--,--:--:--,0,--.--,09:46:48,8/15/2022,--.--,--.--,--.--,--.--,--.--,--.--,--.--,--.--,--.--,--.--,--.--,--.--,0,0.000,0.000,0.000,0.000,0.000,0.000,0.000,0.000,0.000,0.000,0.000,0.000,false,false,false,false,false,false,false,false,false,false,false,false,--.--,--.--,--.--,--.--,--.--,--.--,--.--,--.--,47.6197395,-122.3632507,10TET 47846 74233,1.0,1.0,0.0,3,10,--.--,--.--,,--.--,--.--,--.--,0,0,--.--,--.--,0,0.7,0.9,-0.2,0.3,0.4,0.2,--.--,--.--,--.--,--.--,--.--,--.--,--.--,--.--,--.--,--.--,--.--,--.--,99.25,62.94,--.--,0,0,0.0,0.1,0.1,0,0,0,--.--,--.--,--.--
2022-08-15 09:46:49.908,6.2,-0.5,88,0.0,0.0,0.0,0.0,0.0,0.000,-0.2,-0.3,-0.5,-0.060,-0.153,0.000,0.0,00:00:04,0.1,0,--.--,--.--,--.--,49,0000:00:00,50,0,30,0,40,0,2,--.--,0,0,0,--.--,1.12,166,--.--,98,--.--,--:--:--,0,--.--,09:46:49,8/15/2022,--.--,--.--,--.--,--.--,--.--,--.--,--.--,--.--,--.--,--.--,--.--,--.--,0,0.000,0.000,0.000,0.000,0.000,0.000,0.000,0.000,0.000,0.000,0.000,0.000,false,false,false,false,false,false,false,false,false,false,false,false,--.--,--.--,--.--,--.--,--.--,--.--,--.--,--.--,47.6197395,-122.3632507,10TET 47846 74233,1.0,1.0,0.0,3,10,--.--,--.--,,--.--,--.--,--.--,0,0,--.--,--.--,0,0.6,0.8,0.1,0.1,0.2,0.2,--.--,--.--,--.--,--.--,--.--,--.--,--.--,--.--,--.--,--.--,--.--,--.--,99.27,62.94,--.--,0,0,0.1,0.1,0.1,0,0,0,--.--,--.--,--.--
2022-08-15 09:46:50.925,5.8,-2.1,88,0.0,0.0,0.0,0.0,0.0,0.000,0.2,0.1,-0.1,0.060,0.101,0.000,0.0,00:00:05,0.2,0,--.--,--.--,--.--,49,0000:00:00,50,0,0,0,40,0,2,--.--,0,0,0,--.--,0.48,167,--.--,98,--.--,--:--:--,0,--.--,09:46:50,8/15/2022,--.--,--.--,--.--,--.--,--.--,--.--,--.--,--.--,--.--,--.--,--.--,--.--,0,0.000,0.000,0.000,0.000,0.000,0.000,0.000,0.000,0.000,0.000,0.000,0.000,false,false,false,false,false,false,false,false,false,false,false,false,--.--,--.--,--.--,--.--,--.--,--.--,--.--,--.--,47.6197395,-122.3632507,10TET 47846 74233,1.0,1.0,0.0,3,10,--.--,--.--,,--.--,--.--,--.--,0,0,--.--,--.--,0,0.6,0.7,-0.3,0.3,0.1,-0.2,--.--,--.--,--.--,--.--,--.--,--.--,--.--,--.--,--.--,--.--,--.--,--.--,99.28,62.94,--.--,0,0,0.0,0.0,0.0,0,0,0,--.--,--.--,--.--
2022-08-15 09:46:51.940,6.0,-1.6,88,0.0,0.0,0.0,0.0,0.0,0.000,-0.2,0.0,-0.2,0.040,0.049,0.000,0.0,00:00:06,0.1,0,--.--,--.--,--.--,0,0000:00:00,50,0,0,0,40,0,2,--.--,0,0,0,--.--,0.49,167,--.--,98,--.--,--:--:--,0,--.--,09:46:51,8/15/2022,--.--,--.--,--.--,--.--,--.--,--.--,--.--,--.--,--.--,--.--,--.--,--.--,0,0.000,0.000,0.000,0.000,0.000,0.000,0.000,0.000,0.000,0.000,0.000,0.000,false,false,false,false,false,false,false,false,false,false,false,false,--.--,--.--,--.--,--.--,--.--,--.--,--.--,--.--,47.6197395,-122.3632507,10TET 47846 74233,1.0,1.0,0.0,3,10,--.--,--.--,,--.--,--.--,--.--,0,0,--.--,--.--,0,0.6,0.8,-0.2,0.2,0.4,0.2,--.--,--.--,--.--,--.--,--.--,--.--,--.--,--.--,--.--,--.--,--.--,--.--,99.30,62.94,--.--,0,0,0.0,0.0,0.0,0,0,0,--.--,--.--,--.--
2022-08-15 09:46:52.941,6.2,-0.6,88,0.0,0.0,0.0,0.0,0.0,0.000,-0.0,-0.3,-0.4,-0.060,-0.150,0.000,0.0,00:00:06,0.0,0,--.--,--.--,--.--,0,0000:00:00,50,0,0,0,40,0,2,--.--,0,0,0,--.--,0.49,167,--.--,98,--.--,--:--:--,0,--.--,09:46:52,8/15/2022,--.--,--.--,--.--,--.--,--.--,--.--,--.--,--.--,--.--,--.--,--.--,--.--,0,0.000,0.000,0.000,0.000,0.000,0.000,0.000,0.000,0.000,0.000,0.000,0.000,false,false,false,false,false,false,false,false,false,false,false,false,--.--,--.--,--.--,--.--,--.--,--.--,--.--,--.--,47.6197395,-122.3632507,10TET 47846 74233,1.0,1.0,0.0,3,10,--.--,--.--,,--.--,--.--,--.--,0,0,--.--,--.--,0,0.7,0.9,0.1,0.2,0.2,0.0,--.--,--.--,--.--,--.--,--.--,--.--,--.--,--.--,--.--,--.--,--.--,--.--,99.32,62.94,--.--,0,0,0.0,0.1,0.0,0,0,0,--.--,--.--,--.--
2022-08-15 09:46:53.941,6.6,-1.4,88,0.0,0.0,0.0,0.0,0.0,0.000,-0.0,-0.1,-0.2,0.010,-0.012,0.000,0.0,00:00:06,0.2,0,--.--,--.--,--.--,0,0000:00:00,50,0,0,0,40,0,2,--.--,0,0,0,--.--,0.50,167,--.--,98,--.--,--:--:--,0,--.--,09:46:53,8/15/2022,--.--,--.--,--.--,--.--,--.--,--.--,--.--,--.--,--.--,--.--,--.--,--.--,0,0.000,0.000,0.000,0.000,0.000,0.000,0.000,0.000,0.000,0.000,0.000,0.000,false,false,false,false,false,false,false,false,false,false,false,false,--.--,--.--,--.--,--.--,--.--,--.--,--.--,--.--,47.6197395,-122.3632507,10TET 47846 74233,1.0,1.0,0.0,3,10,--.--,--.--,,--.--,--.--,--.--,0,0,--.--,--.--,0,0.6,0.8,-0.2,0.1,0.2,0.0,--.--,--.--,--.--,--.--,--.--,--.--,--.--,--.--,--.--,--.--,--.--,--.--,99.36,62.94,--.--,0,0,0.0,0.1,0.0,0,0,0,--.--,--.--,--.--
2022-08-15 09:46:54.940,6.7,-1.6,88,0.0,0.0,0.0,0.0,0.0,0.000,-0.1,0.0,-0.2,0.030,0.037,0.000,0.0,00:00:06,0.1,0,--.--,--.--,--.--,0,0000:00:00,50,0,0,0,40,0,2,--.--,0,0,0,--.--,0.50,167,--.--,98,--.--,--:--:--,0,--.--,09:46:54,8/15/2022,--.--,--.--,--.--,--.--,--.--,--.--,--.--,--.--,--.--,--.--,--.--,--.--,0,0.000,0.000,0.000,0.000,0.000,0.000,0.000,0.000,0.000,0.000,0.000,0.000,false,false,false,false,false,false,false,false,false,false,false,false,--.--,--.--,--.--,--.--,--.--,--.--,--.--,--.--,47.6197395,-122.3632507,10TET 47846 74233,1.0,1.0,0.0,3,10,--.--,--.--,,--.--,--.--,--.--,0,0,--.--,--.--,0,0.7,0.8,-0.2,0.2,0.3,0.1,--.--,--.--,--.--,--.--,--.--,--.--,--.--,--.--,--.--,--.--,--.--,--.--,99.37,62.92,--.--,0,0,0.1,0.2,0.0,0,0,0,--.--,--.--,--.--
2022-08-15 09:46:55.940,6.3,-0.7,88,0.0,0.0,0.0,0.0,0.0,0.000,-0.1,-0.2,-0.3,-0.020,-0.073,0.000,0.0,00:00:06,0.1,0,--.--,--.--,--.--,0,0000:00:00,50,0,0,0,40,0,2,--.--,0,0,0,--.--,0.55,167,--.--,98,--.--,--:--:--,0,--.--,09:46:55,8/15/2022,--.--,--.--,--.--,--.--,--.--,--.--,--.--,--.--,--.--,--.--,--.--,--.--,0,0.000,0.000,0.000,0.000,0.000,0.000,0.000,0.000,0.000,0.000,0.000,0.000,false,false,false,false,false,false,false,false,false,false,false,false,--.--,--.--,--.--,--.--,--.--,--.--,--.--,--.--,47.6197395,-122.3632507,10TET 47846 74233,1.0,1.0,0.0,3,10,--.--,--.--,,--.--,--.--,--.--,0,0,--.--,--.--,0,0.6,0.8,-0.1,0.2,0.2,0.1,--.--,--.--,--.--,--.--,--.--,--.--,--.--,--.--,--.--,--.--,--.--,--.--,99.39,62.92,--.--,0,0,0.1,0.1,0.1,0,0,0,--.--,--.--,--.--
2022-08-15 09:46:56.970,8.0,-2.0,83,0.0,0.0,0.0,0.0,0.0,0.000,0.1,0.0,-0.1,0.040,0.053,0.000,0.0,00:00:06,0.2,0,--.--,--.--,--.--,0,0000:00:00,50,0,0,0,40,0,2,--.--,0,0,0,--.--,0.81,167,--.--,98,--.--,--:--:--,0,--.--,09:46:56,8/15/2022,--.--,--.--,--.--,--.--,--.--,--.--,--.--,--.--,--.--,--.--,--.--,--.--,0,0.000,0.000,0.000,0.000,0.000,0.000,0.000,0.000,0.000,0.000,0.000,0.000,false,false,false,false,false,false,false,false,false,false,false,false,--.--,--.--,--.--,--.--,--.--,--.--,--.--,--.--,47.6197395,-122.3632507,10TET 47846 74233,1.0,1.0,0.0,3,10,--.--,--.--,,--.--,--.--,--.--,0,0,--.--,--.--,0,0.7,0.7,-0.3,0.3,0.1,-0.1,--.--,--.--,--.--,--.--,--.--,--.--,--.--,--.--,--.--,--.--,--.--,--.--,99.41,62.92,--.--,0,0,0.2,0.3,0.1,0,0,0,--.--,--.--,--.--
2022-08-15 09:46:57.970,5.6,-1.1,91,0.0,0.0,0.0,0.0,0.0,0.000,-0.2,-0.1,-0.2,0.010,-0.014,0.000,0.0,00:00:06,0.1,0,--.--,--.--,--.--,0,0000:00:00,50,0,0,0,40,0,2,--.--,0,0,0,--.--,0.49,168,--.--,98,--.--,--:--:--,0,--.--,09:46:57,8/15/2022,--.--,--.--,--.--,--.--,--.--,--.--,--.--,--.--,--.--,--.--,--.--,--.--,0,0.000,0.000,0.000,0.000,0.000,0.000,0.000,0.000,0.000,0.000,0.000,0.000,false,false,false,false,false,false,false,false,false,false,false,false,--.--,--.--,--.--,--.--,--.--,--.--,--.--,--.--,47.6197395,-122.3632507,10TET 47846 74233,1.0,1.0,0.0,3,10,--.--,--.--,,--.--,--.--,--.--,0,0,--.--,--.--,0,0.6,0.8,-0.1,0.1,0.5,0.2,--.--,--.--,--.--,--.--,--.--,--.--,--.--,--.--,--.--,--.--,--.--,--.--,99.41,62.94,--.--,0,0,0.5,0.2,0.1,0,0,0,--.--,--.--,--.--
2022-08-15 09:46:58.961,7.4,-0.5,90,0.0,0.0,0.0,0.0,0.0,0.000,-0.2,-0.3,-0.4,-0.050,-0.140,0.000,0.0,00:00:06,0.0,0,--.--,--.--,--.--,0,0000:00:00,50,0,0,0,40,0,2,--.--,0,0,0,--.--,0.54,168,--.--,98,--.--,--:--:--,0,--.--,09:46:58,8/15/2022,--.--,--.--,--.--,--.--,--.--,--.--,--.--,--.--,--.--,--.--,--.--,--.--,0,0.000,0.000,0.000,0.000,0.000,0.000,0.000,0.000,0.000,0.000,0.000,0.000,false,false,false,false,false,false,false,false,false,false,false,false,--.--,--.--,--.--,--.--,--.--,--.--,--.--,--.--,47.6197395,-122.3632507,10TET 47846 74233,1.0,1.0,0.0,3,10,--.--,--.--,,--.--,--.--,--.--,0,0,--.--,--.--,0,0.7,0.9,0.1,0.3,0.2,0.1,--.--,--.--,--.--,--.--,--.--,--.--,--.--,--.--,--.--,--.--,--.--,--.--,99.45,62.92,--.--,0,0,0.1,0.1,0.1,0,0,0,--.--,--.--,--.--
2022-08-15 09:46:59.975,6.0,-2.8,91,0.0,0.0,0.0,0.0,0.0,0.000,0.2,0.1,-0.1,0.050,0.078,0.000,0.0,00:00:06,0.2,0,--.--,--.--,--.--,0,0000:00:00,50,0,0,0,40,0,2,--.--,0,0,0,--.--,0.50,168,--.--,98,--.--,--:--:--,0,--.--,09:46:59,8/15/2022,--.--,--.--,--.--,--.--,--.--,--.--,--.--,--.--,--.--,--.--,--.--,--.--,0,0.000,0.000,0.000,0.000,0.000,0.000,0.000,0.000,0.000,0.000,0.000,0.000,false,false,false,false,false,false,false,false,false,false,false,false,--.--,--.--,--.--,--.--,--.--,--.--,--.--,--.--,47.6197395,-122.3632507,10TET 47846 74233,1.0,1.0,0.0,3,10,--.--,--.--,,--.--,--.--,--.--,0,0,--.--,--.--,0,0.7,0.8,-0.3,0.3,0.2,-0.2,--.--,--.--,--.--,--.--,--.--,--.--,--.--,--.--,--.--,--.--,--.--,--.--,99.46,62.92,--.--,0,0,0.0,0.1,0.1,0,0,0,--.--,--.--,--.--
2022-08-15 09:47:00.971,7.0,-0.3,90,0.0,0.0,0.0,0.0,0.0,0.000,-0.2,-0.0,-0.2,0.020,0.005,0.000,0.0,00:00:06,0.0,0,--.--,--.--,--.--,0,0000:00:00,50,0,0,0,40,0,2,--.--,0,0,0,--.--,0.54,168,--.--,98,--.--,--:--:--,0,--.--,09:47:00,8/15/2022,--.--,--.--,--.--,--.--,--.--,--.--,--.--,--.--,--.--,--.--,--.--,--.--,0,0.000,0.000,0.000,0.000,0.000,0.000,0.000,0.000,0.000,0.000,0.000,0.000,false,false,false,false,false,false,false,false,false,false,false,false,--.--,--.--,--.--,--.--,--.--,--.--,--.--,--.--,47.6197395,-122.3632507,10TET 47846 74233,1.0,1.0,0.0,3,10,--.--,--.--,,--.--,--.--,--.--,0,0,--.--,--.--,0,0.7,0.9,-0.2,0.2,0.4,0.2,--.--,--.--,--.--,--.--,--.--,--.--,--.--,--.--,--.--,--.--,--.--,--.--,99.46,62.92,--.--,0,0,0.2,0.4,0.5,0,0,0,--.--,--.--,--.--
2022-08-15 09:47:01.988,6.3,-1.8,90,0.0,0.0,0.0,0.0,0.0,0.000,-0.1,-0.1,-0.3,-0.010,-0.053,0.000,0.0,00:00:06,0.1,0,--.--,--.--,--.--,0,0000:00:00,50,0,0,0,40,0,2,--.--,0,0,0,--.--,0.51,168,--.--,98,--.--,--:--:--,0,--.--,09:47:01,8/15/2022,--.--,--.--,--.--,--.--,--.--,--.--,--.--,--.--,--.--,--.--,--.--,--.--,0,0.000,0.000,0.000,0.000,0.000,0.000,0.000,0.000,0.000,0.000,0.000,0.000,false,false,false,false,false,false,false,false,false,false,false,false,--.--,--.--,--.--,--.--,--.--,--.--,--.--,--.--,47.6197395,-122.3632507,10TET 47846 74233,1.0,1.0,0.0,3,10,--.--,--.--,,--.--,--.--,--.--,0,0,--.--,--.--,0,0.6,0.8,-0.1,0.2,0.2,0.2,--.--,--.--,--.--,--.--,--.--,--.--,--.--,--.--,--.--,--.--,--.--,--.--,99.48,62.92,--.--,0,0,0.1,0.1,0.1,0,0,0,--.--,--.--,--.--
2022-08-15 09:47:02.989,5.7,-1.4,90,0.0,0.0,0.0,0.0,0.0,0.000,0.1,0.0,-0.2,0.030,0.032,0.000,0.0,00:00:06,0.2,0,--.--,--.--,--.--,0,0000:00:00,50,0,0,0,40,0,2,--.--,0,0,0,--.--,0.52,168,--.--,98,--.--,--:--:--,0,--.--,09:47:02,8/15/2022,--.--,--.--,--.--,--.--,--.--,--.--,--.--,--.--,--.--,--.--,--.--,--.--,0,0.000,0.000,0.000,0.000,0.000,0.000,0.000,0.000,0.000,0.000,0.000,0.000,false,false,false,false,false,false,false,false,false,false,false,false,--.--,--.--,--.--,--.--,--.--,--.--,--.--,--.--,47.6197395,-122.3632507,10TET 47846 74233,1.0,1.0,0.0,3,10,--.--,--.--,,--.--,--.--,--.--,0,0,--.--,--.--,0,0.8,0.8,-0.2,0.4,0.2,-0.1,--.--,--.--,--.--,--.--,--.--,--.--,--.--,--.--,--.--,--.--,--.--,--.--,99.50,62.92,--.--,0,0,0.0,0.1,0.1,0,0,0,--.--,--.--,--.--
2022-08-15 09:47:03.994,9.0,-1.0,91,0.0,0.0,0.0,0.0,0.0,0.000,-0.2,-0.2,-0.3,-0.020,-0.059,0.000,0.0,00:00:06,0.1,0,--.--,--.--,--.--,0,0000:00:00,50,0,0,0,40,0,2,--.--,0,0,0,--.--,0.54,168,--.--,98,--.--,--:--:--,0,--.--,09:47:03,8/15/2022,--.--,--.--,--.--,--.--,--.--,--.--,--.--,--.--,--.--,--.--,--.--,--.--,0,0.000,0.000,0.000,0.000,0.000,0.000,0.000,0.000,0.000,0.000,0.000,0.000,false,false,false,false,false,false,false,false,false,false,false,false,--.--,--.--,--.--,--.--,--.--,--.--,--.--,--.--,47.6197395,-122.3632507,10TET 47846 74233,1.0,1.0,0.0,3,10,--.--,--.--,,--.--,--.--,--.--,0,0,--.--,--.--,0,0.7,0.8,-0.1,0.1,0.2,0.3,--.--,--.--,--.--,--.--,--.--,--.--,--.--,--.--,--.--,--.--,--.--,--.--,99.50,62.92,--.--,0,0,0.0,0.1,0.0,0,0,0,--.--,--.--,--.--
2022-08-15 09:47:04.988,4.9,-1.2,91,0.0,0.0,0.0,0.0,0.0,0.000,0.0,-0.2,-0.3,-0.020,-0.075,0.000,0.0,00:00:06,0.2,0,--.--,--.--,--.--,0,0000:00:00,50,0,0,0,40,0,2,--.--,0,0,0,--.--,0.48,169,--.--,98,--.--,--:--:--,0,--.--,09:47:04,8/15/2022,--.--,--.--,--.--,--.--,--.--,--.--,--.--,--.--,--.--,--.--,--.--,--.--,0,0.000,0.000,0.000,0.000,0.000,0.000,0.000,0.000,0.000,0.000,0.000,0.000,false,false,false,false,false,false,false,false,false,false,false,false,--.--,--.--,--.--,--.--,--.--,--.--,--.--,--.--,47.6197395,-122.3632507,10TET 47846 74233,1.0,1.0,0.0,3,10,--.--,--.--,,--.--,--.--,--.--,0,0,--.--,--.--,0,0.5,0.7,-0.1,0.1,0.1,0.0,--.--,--.--,--.--,--.--,--.--,--.--,--.--,--.--,--.--,--.--,--.--,--.--,99.52,62.92,--.--,0,0,0.0,0.1,0.1,0,0,0,--.--,--.--,--.--
2022-08-15 09:47:05.992,7.9,-1.6,91,0.0,0.0,0.0,0.0,0.0,0.000,0.1,0.1,-0.1,0.060,0.097,0.000,0.0,00:00:06,0.2,0,--.--,--.--,--.--,0,0000:00:00,50,0,0,0,40,0,2,--.--,0,0,0,--.--,0.50,169,--.--,98,--.--,--:--:--,0,--.--,09:47:05,8/15/2022,--.--,--.--,--.--,--.--,--.--,--.--,--.--,--.--,--.--,--.--,--.--,--.--,0,0.000,0.000,0.000,0.000,0.000,0.000,0.000,0.000,0.000,0.000,0.000,0.000,false,false,false,false,false,false,false,false,false,false,false,false,--.--,--.--,--.--,--.--,--.--,--.--,--.--,--.--,47.6197395,-122.3632507,10TET 47846 74233,1.0,1.0,0.0,3,10,--.--,--.--,,--.--,--.--,--.--,0,0,--.--,--.--,0,0.7,0.7,-0.4,0.3,0.2,-0.1,--.--,--.--,--.--,--.--,--.--,--.--,--.--,--.--,--.--,--.--,--.--,--.--,99.52,62.92,--.--,0,0,0.1,0.2,0.2,0,0,0,--.--,--.--,--.--
2022-08-15 09:47:06.988,6.0,-1.5,91,0.0,0.0,0.0,0.0,0.0,0.000,-0.0,0.0,-0.2,0.030,0.030,0.000,0.0,00:00:06,0.1,0,--.--,--.--,--.--,0,0000:00:00,50,0,0,0,40,0,2,--.--,0,0,0,--.--,0.53,169,--.--,98,--.--,--:--:--,0,--.--,09:47:06,8/15/2022,--.--,--.--,--.--,--.--,--.--,--.--,--.--,--.--,--.--,--.--,--.--,--.--,0,0.000,0.000,0.000,0.000,0.000,0.000,0.000,0.000,0.000,0.000,0.000,0.000,false,false,false,false,false,false,false,false,false,false,false,false,--.--,--.--,--.--,--.--,--.--,--.--,--.--,--.--,47.6197395,-122.3632507,10TET 47846 74233,1.0,1.0,0.0,3,10,--.--,--.--,,--.--,--.--,--.--,0,0,--.--,--.--,0,0.6,0.8,-0.2,0.2,0.3,0.0,--.--,--.--,--.--,--.--,--.--,--.--,--.--,--.--,--.--,--.--,--.--,--.--,99.54,62.92,--.--,0,0,0.0,0.1,0.1,0,0,0,--.--,--.--,--.--
2022-08-15 09:47:08.002,7.6,-1.1,91,0.0,0.0,0.0,0.0,0.0,0.000,-0.2,-0.2,-0.3,-0.020,-0.074,0.000,0.0,00:00:06,0.0,0,--.--,--.--,--.--,0,0000:00:00,50,0,0,0,40,0,2,--.--,0,0,0,--.--,0.52,169,--.--,98,--.--,--:--:--,0,--.--,09:47:08,8/15/2022,--.--,--.--,--.--,--.--,--.--,--.--,--.--,--.--,--.--,--.--,--.--,--.--,0,0.000,0.000,0.000,0.000,0.000,0.000,0.000,0.000,0.000,0.000,0.000,0.000,false,false,false,false,false,false,false,false,false,false,false,false,--.--,--.--,--.--,--.--,--.--,--.--,--.--,--.--,47.6197395,-122.3632507,10TET 47846 74233,1.0,1.0,0.0,3,10,--.--,--.--,,--.--,--.--,--.--,0,0,--.--,--.--,0,0.6,0.9,-0.0,0.2,0.3,0.2,--.--,--.--,--.--,--.--,--.--,--.--,--.--,--.--,--.--,--.--,--.--,--.--,99.54,62.94,--.--,0,0,0.0,0.0,0.0,0,0,0,--.--,--.--,--.--
2022-08-15 09:47:08.995,6.3,-0.9,91,0.0,0.0,0.0,0.0,0.0,0.000,-0.0,-0.2,-0.3,-0.020,-0.075,0.000,0.0,00:00:06,0.1,0,--.--,--.--,--.--,0,0000:00:00,50,0,0,0,40,0,2,--.--,0,0,0,--.--,0.53,169,--.--,98,--.--,--:--:--,0,--.--,09:47:08,8/15/2022,--.--,--.--,--.--,--.--,--.--,--.--,--.--,--.--,--.--,--.--,--.--,--.--,0,0.000,0.000,0.000,0.000,0.000,0.000,0.000,0.000,0.000,0.000,0.000,0.000,false,false,false,false,false,false,false,false,false,false,false,false,--.--,--.--,--.--,--.--,--.--,--.--,--.--,--.--,47.6197395,-122.3632507,10TET 47846 74233,1.0,1.0,0.0,3,10,--.--,--.--,,--.--,--.--,--.--,0,0,--.--,--.--,0,0.6,0.8,-0.1,0.2,0.2,0.1,--.--,--.--,--.--,--.--,--.--,--.--,--.--,--.--,--.--,--.--,--.--,--.--,99.55,62.92,--.--,0,0,0.0,0.0,0.0,0,0,0,--.--,--.--,--.--
2022-08-15 09:47:09.996,7.2,-2.0,91,0.0,0.0,0.0,0.0,0.0,0.000,0.1,0.1,-0.1,0.050,0.076,0.000,0.0,00:00:06,0.2,0,--.--,--.--,--.--,0,0000:00:00,50,0,0,0,40,0,2,--.--,0,0,0,--.--,0.49,169,--.--,98,--.--,--:--:--,0,--.--,09:47:09,8/15/2022,--.--,--.--,--.--,--.--,--.--,--.--,--.--,--.--,--.--,--.--,--.--,--.--,0,0.000,0.000,0.000,0.000,0.000,0.000,0.000,0.000,0.000,0.000,0.000,0.000,false,false,false,false,false,false,false,false,false,false,false,false,--.--,--.--,--.--,--.--,--.--,--.--,--.--,--.--,47.6197395,-122.3632507,10TET 47846 74233,1.0,1.0,0.0,3,10,--.--,--.--,,--.--,--.--,--.--,0,0,--.--,--.--,0,0.6,0.7,-0.3,0.2,0.2,-0.1,--.--,--.--,--.--,--.--,--.--,--.--,--.--,--.--,--.--,--.--,--.--,--.--,99.55,62.92,--.--,0,0,0.0,0.0,0.0,0,0,0,--.--,--.--,--.--
2022-08-15 09:47:10.991,6.5,-0.9,91,0.0,0.0,0.0,0.0,0.0,0.000,-0.1,-0.1,-0.3,0.000,-0.035,0.000,0.0,00:00:06,0.1,0,--.--,--.--,--.--,0,0000:00:00,50,0,0,0,40,0,2,--.--,0,0,0,--.--,0.52,169,--.--,98,--.--,--:--:--,0,--.--,09:47:10,8/15/2022,--.--,--.--,--.--,--.--,--.--,--.--,--.--,--.--,--.--,--.--,--.--,--.--,0,0.000,0.000,0.000,0.000,0.000,0.000,0.000,0.000,0.000,0.000,0.000,0.000,false,false,false,false,false,false,false,false,false,false,false,false,--.--,--.--,--.--,--.--,--.--,--.--,--.--,--.--,47.6197395,-122.3632507,10TET 47846 74233,1.0,1.0,0.0,3,10,--.--,--.--,,--.--,--.--,--.--,0,0,--.--,--.--,0,0.6,0.8,-0.1,0.2,0.3,0.1,--.--,--.--,--.--,--.--,--.--,--.--,--.--,--.--,--.--,--.--,--.--,--.--,99.57,62.94,--.--,0,0,0.0,0.1,0.1,0,0,0,--.--,--.--,--.--
2022-08-15 09:47:12.003,6.7,-1.1,91,0.0,0.0,0.0,0.0,0.0,0.000,0.0,-0.1,-0.3,0.010,-0.032,0.000,0.0,00:00:06,0.1,0,--.--,--.--,--.--,0,0000:00:00,50,0,0,0,40,0,2,--.--,0,0,0,--.--,0.58,170,--.--,98,--.--,--:--:--,0,--.--,09:47:12,8/15/2022,--.--,--.--,--.--,--.--,--.--,--.--,--.--,--.--,--.--,--.--,--.--,--.--,0,0.000,0.000,0.000,0.000,0.000,0.000,0.000,0.000,0.000,0.000,0.000,0.000,false,false,false,false,false,false,false,false,false,false,false,false,--.--,--.--,--.--,--.--,--.--,--.--,--.--,--.--,47.6197395,-122.3632507,10TET 47846 74233,1.0,1.0,0.0,3,10,--.--,--.--,,--.--,--.--,--.--,0,0,--.--,--.--,0,0.6,0.8,-0.1,0.2,0.2,0.0,--.--,--.--,--.--,--.--,--.--,--.--,--.--,--.--,--.--,--.--,--.--,--.--,99.59,62.94,--.--,0,0,0.1,0.1,0.1,0,0,0,--.--,--.--,--.--
2022-08-15 09:47:13.006,7.0,-2.3,91,0.0,0.0,0.0,0.0,0.0,0.000,-0.0,0.1,-0.1,0.060,0.098,0.000,0.0,00:00:06,0.1,0,--.--,--.--,--.--,0,0000:00:00,50,0,0,0,40,0,2,--.--,0,0,0,--.--,0.55,170,--.--,98,--.--,--:--:--,0,--.--,09:47:13,8/15/2022,--.--,--.--,--.--,--.--,--.--,--.--,--.--,--.--,--.--,--.--,--.--,--.--,0,0.000,0.000,0.000,0.000,0.000,0.000,0.000,0.000,0.000,0.000,0.000,0.000,false,false,false,false,false,false,false,false,false,false,false,false,--.--,--.--,--.--,--.--,--.--,--.--,--.--,--.--,47.6197395,-122.3632507,10TET 47846 74233,1.0,1.0,0.0,3,10,--.--,--.--,,--.--,--.--,--.--,0,0,--.--,--.--,0,0.6,0.8,-0.4,0.2,0.3,0.0,--.--,--.--,--.--,--.--,--.--,--.--,--.--,--.--,--.--,--.--,--.--,--.--,99.59,62.94,--.--,0,0,0.0,0.1,0.0,0,0,0,--.--,--.--,--.--
2022-08-15 09:47:14.018,6.6,-0.1,91,0.0,0.0,0.0,0.0,0.0,0.000,-0.2,-0.3,-0.4,-0.050,-0.135,0.000,0.0,00:00:06,0.1,0,--.--,--.--,--.--,0,0000:00:00,50,0,0,0,40,0,2,--.--,0,0,0,--.--,0.49,170,--.--,98,--.--,--:--:--,0,--.--,09:47:14,8/15/2022,--.--,--.--,--.--,--.--,--.--,--.--,--.--,--.--,--.--,--.--,--.--,--.--,0,0.000,0.000,0.000,0.000,0.000,0.000,0.000,0.000,0.000,0.000,0.000,0.000,false,false,false,false,false,false,false,false,false,false,false,false,--.--,--.--,--.--,--.--,--.--,--.--,--.--,--.--,47.6197395,-122.3632507,10TET 47846 74233,1.0,1.0,0.0,3,10,--.--,--.--,,--.--,--.--,--.--,0,0,--.--,--.--,0,0.6,0.9,0.0,0.2,0.3,0.2,--.--,--.--,--.--,--.--,--.--,--.--,--.--,--.--,--.--,--.--,--.--,--.--,99.61,62.92,--.--,0,0,0.1,0.1,0.1,0,0,0,--.--,--.--,--.--
2022-08-15 09:47:15.019,7.2,-1.9,92,0.0,0.0,0.0,0.0,0.0,0.000,0.1,-0.1,-0.3,0.000,-0.030,0.000,0.0,00:00:06,0.2,0,--.--,--.--,--.--,0,0000:00:00,50,0,0,0,40,0,2,--.--,0,0,0,--.--,0.50,170,--.--,98,--.--,--:--:--,0,--.--,09:47:15,8/15/2022,--.--,--.--,--.--,--.--,--.--,--.--,--.--,--.--,--.--,--.--,--.--,--.--,0,0.000,0.000,0.000,0.000,0.000,0.000,0.000,0.000,0.000,0.000,0.000,0.000,false,false,false,false,false,false,false,false,false,false,false,false,--.--,--.--,--.--,--.--,--.--,--.--,--.--,--.--,47.6197395,-122.3632507,10TET 47846 74233,1.0,1.0,0.0,3,10,--.--,--.--,,--.--,--.--,--.--,0,0,--.--,--.--,0,0.6,0.7,-0.1,0.2,0.1,-0.1,--.--,--.--,--.--,--.--,--.--,--.--,--.--,--.--,--.--,--.--,--.--,--.--,99.61,62.92,--.--,0,0,0.0,0.1,0.1,0,0,0,--.--,--.--,--.--
2022-08-15 09:47:16.019,6.3,-2.0,92,0.0,0.0,0.0,0.0,0.0,0.000,0.1,0.1,-0.0,0.070,0.119,0.000,0.0,00:00:06,0.1,0,--.--,--.--,--.--,0,0000:00:00,50,0,0,0,40,0,2,--.--,0,0,0,--.--,0.52,170,--.--,98,--.--,--:--:--,0,--.--,09:47:16,8/15/2022,--.--,--.--,--.--,--.--,--.--,--.--,--.--,--.--,--.--,--.--,--.--,--.--,0,0.000,0.000,0.000,0.000,0.000,0.000,0.000,0.000,0.000,0.000,0.000,0.000,false,false,false,false,false,false,false,false,false,false,false,false,--.--,--.--,--.--,--.--,--.--,--.--,--.--,--.--,47.6197395,-122.3632507,10TET 47846 74233,1.0,1.0,0.0,3,10,--.--,--.--,,--.--,--.--,--.--,0,0,--.--,--.--,0,0.6,0.8,-0.4,0.2,0.3,-0.2,--.--,--.--,--.--,--.--,--.--,--.--,--.--,--.--,--.--,--.--,--.--,--.--,99.63,62.92,--.--,0,0,0.3,0.2,0.2,0,0,0,--.--,--.--,--.--
2022-08-15 09:47:17.035,6.9,-0.6,92,0.0,0.0,0.0,0.0,0.0,0.000,-0.2,-0.1,-0.3,-0.010,-0.062,0.000,0.0,00:00:06,0.1,0,--.--,--.--,--.--,0,0000:00:00,50,0,0,0,40,0,2,--.--,0,0,0,--.--,0.51,170,--.--,98,--.--,--:--:--,0,--.--,09:47:17,8/15/2022,--.--,--.--,--.--,--.--,--.--,--.--,--.--,--.--,--.--,--.--,--.--,--.--,0,0.000,0.000,0.000,0.000,0.000,0.000,0.000,0.000,0.000,0.000,0.000,0.000,false,false,false,false,false,false,false,false,false,false,false,false,--.--,--.--,--.--,--.--,--.--,--.--,--.--,--.--,47.6197395,-122.3632507,10TET 47846 74233,1.0,1.0,0.0,3,10,--.--,--.--,,--.--,--.--,--.--,0,0,--.--,--.--,0,0.6,1.0,-0.1,0.2,0.4,0.2,--.--,--.--,--.--,--.--,--.--,--.--,--.--,--.--,--.--,--.--,--.--,--.--,99.63,62.92,--.--,0,0,0.1,0.1,0.1,0,0,0,--.--,--.--,--.--
2022-08-15 09:47:18.038,5.5,-1.7,92,0.0,0.0,0.0,0.0,0.0,0.000,0.0,-0.1,-0.3,0.000,-0.035,0.000,0.0,00:00:06,0.1,0,--.--,--.--,--.--,0,0000:00:00,50,0,0,0,40,0,2,--.--,0,0,0,--.--,0.77,170,--.--,98,--.--,--:--:--,0,--.--,09:47:18,8/15/2022,--.--,--.--,--.--,--.--,--.--,--.--,--.--,--.--,--.--,--.--,--.--,--.--,0,0.000,0.000,0.000,0.000,0.000,0.000,0.000,0.000,0.000,0.000,0.000,0.000,false,false,false,false,false,false,false,false,false,false,false,false,--.--,--.--,--.--,--.--,--.--,--.--,--.--,--.--,47.6197395,-122.3632507,10TET 47846 74233,1.0,1.0,0.0,3,10,--.--,--.--,,--.--,--.--,--.--,0,0,--.--,--.--,0,0.7,0.8,-0.1,0.3,0.2,-0.0,--.--,--.--,--.--,--.--,--.--,--.--,--.--,--.--,--.--,--.--,--.--,--.--,99.64,62.92,--.--,0,0,0.1,0.1,0.1,0,0,0,--.--,--.--,--.--
2022-08-15 09:47:19.036,7.7,-1.7,92,0.0,0.0,0.0,0.0,0.0,0.000,0.0,0.0,-0.1,0.040,0.057,0.000,0.0,00:00:06,0.0,0,--.--,--.--,--.--,0,0000:00:00,50,0,0,0,40,0,2,--.--,0,0,0,--.--,0.53,171,--.--,98,--.--,--:--:--,0,--.--,09:47:19,8/15/2022,--.--,--.--,--.--,--.--,--.--,--.--,--.--,--.--,--.--,--.--,--.--,--.--,0,0.000,0.000,0.000,0.000,0.000,0.000,0.000,0.000,0.000,0.000,0.000,0.000,false,false,false,false,false,false,false,false,false,false,false,false,--.--,--.--,--.--,--.--,--.--,--.--,--.--,--.--,47.6197395,-122.3632507,10TET 47846 74233,1.0,1.0,0.0,3,10,--.--,--.--,,--.--,--.--,--.--,0,0,--.--,--.--,0,0.7,0.8,-0.3,0.2,0.3,-0.1,--.--,--.--,--.--,--.--,--.--,--.--,--.--,--.--,--.--,--.--,--.--,--.--,99.64,62.94,--.--,0,0,0.2,0.2,0.1,0,0,0,--.--,--.--,--.--
2022-08-15 09:47:20.034,5.4,-0.4,93,0.0,0.0,0.0,0.0,0.0,0.000,-0.2,-0.2,-0.4,-0.030,-0.099,0.000,0.0,00:00:06,0.0,0,--.--,--.--,--.--,0,0000:00:00,50,0,0,0,40,0,2,--.--,0,0,0,--.--,0.56,171,--.--,98,--.--,--:--:--,0,--.--,09:47:20,8/15/2022,--.--,--.--,--.--,--.--,--.--,--.--,--.--,--.--,--.--,--.--,--.--,--.--,0,0.000,0.000,0.000,0.000,0.000,0.000,0.000,0.000,0.000,0.000,0.000,0.000,false,false,false,false,false,false,false,false,false,false,false,false,--.--,--.--,--.--,--.--,--.--,--.--,--.--,--.--,47.6197395,-122.3632507,10TET 47846 74233,1.0,1.0,0.0,3,10,--.--,--.--,,--.--,--.--,--.--,0,0,--.--,--.--,0,0.6,0.9,0.0,0.2,0.2,0.2,--.--,--.--,--.--,--.--,--.--,--.--,--.--,--.--,--.--,--.--,--.--,--.--,99.66,62.92,--.--,0,0,0.0,0.1,0.1,0,0,0,--.--,--.--,--.--
2022-08-15 09:47:21.039,8.5,-2.4,93,0.0,0.0,0.0,0.0,0.0,0.000,0.1,0.0,-0.2,0.030,0.030,0.000,0.0,00:00:06,0.2,0,--.--,--.--,--.--,0,0000:00:00,50,0,0,0,40,0,2,--.--,0,0,0,--.--,0.51,171,--.--,98,--.--,--:--:--,0,--.--,09:47:21,8/15/2022,--.--,--.--,--.--,--.--,--.--,--.--,--.--,--.--,--.--,--.--,--.--,--.--,0,0.000,0.000,0.000,0.000,0.000,0.000,0.000,0.000,0.000,0.000,0.000,0.000,false,false,false,false,false,false,false,false,false,false,false,false,--.--,--.--,--.--,--.--,--.--,--.--,--.--,--.--,47.6197395,-122.3632507,10TET 47846 74233,1.0,1.0,0.0,3,10,--.--,--.--,,--.--,--.--,--.--,0,0,--.--,--.--,0,0.6,0.7,-0.2,0.1,0.2,-0.1,--.--,--.--,--.--,--.--,--.--,--.--,--.--,--.--,--.--,--.--,--.--,--.--,99.66,62.94,--.--,0,0,0.1,0.1,0.1,0,0,0,--.--,--.--,--.--
2022-08-15 09:47:22.035,5.4,-0.9,93,0.0,0.0,0.0,0.0,0.0,0.000,0.0,0.0,-0.1,0.040,0.059,0.000,0.0,00:00:06,0.1,0,--.--,--.--,--.--,0,0000:00:00,50,0,0,0,40,0,2,--.--,0,0,0,--.--,0.56,171,--.--,98,--.--,--:--:--,0,--.--,09:47:22,8/15/2022,--.--,--.--,--.--,--.--,--.--,--.--,--.--,--.--,--.--,--.--,--.--,--.--,0,0.000,0.000,0.000,0.000,0.000,0.000,0.000,0.000,0.000,0.000,0.000,0.000,false,false,false,false,false,false,false,false,false,false,false,false,--.--,--.--,--.--,--.--,--.--,--.--,--.--,--.--,47.6197395,-122.3632507,10TET 47846 74233,1.0,1.0,0.0,3,10,--.--,--.--,,--.--,--.--,--.--,0,0,--.--,--.--,0,0.6,0.9,-0.3,0.2,0.4,-0.0,--.--,--.--,--.--,--.--,--.--,--.--,--.--,--.--,--.--,--.--,--.--,--.--,99.68,62.92,--.--,0,0,0.0,0.1,0.1,0,0,0,--.--,--.--,--.--
2022-08-15 09:47:23.035,7.7,-1.1,93,0.0,0.0,0.0,0.0,0.0,0.000,-0.2,-0.2,-0.3,-0.010,-0.061,0.000,0.0,00:00:06,0.1,0,--.--,--.--,--.--,0,0000:00:00,50,0,0,0,40,0,2,--.--,0,0,0,--.--,0.51,171,--.--,98,--.--,--:--:--,0,--.--,09:47:23,8/15/2022,--.--,--.--,--.--,--.--,--.--,--.--,--.--,--.--,--.--,--.--,--.--,--.--,0,0.000,0.000,0.000,0.000,0.000,0.000,0.000,0.000,0.000,0.000,0.000,0.000,false,false,false,false,false,false,false,false,false,false,false,false,--.--,--.--,--.--,--.--,--.--,--.--,--.--,--.--,47.6197395,-122.3632507,10TET 47846 74233,1.0,1.0,0.0,3,10,--.--,--.--,,--.--,--.--,--.--,0,0,--.--,--.--,0,0.6,0.8,-0.1,0.2,0.2,0.2,--.--,--.--,--.--,--.--,--.--,--.--,--.--,--.--,--.--,--.--,--.--,--.--,99.70,62.92,--.--,0,0,0.1,0.2,0.1,0,0,0,--.--,--.--,--.--
2022-08-15 09:47:24.035,6.1,-1.5,93,0.0,0.0,0.0,0.0,0.0,0.000,0.0,-0.1,-0.3,-0.010,-0.058,0.000,0.0,00:00:06,0.2,0,--.--,--.--,--.--,0,0000:00:00,50,0,0,0,40,0,2,--.--,0,0,0,--.--,0.49,171,--.--,98,--.--,--:--:--,0,--.--,09:47:24,8/15/2022,--.--,--.--,--.--,--.--,--.--,--.--,--.--,--.--,--.--,--.--,--.--,--.--,0,0.000,0.000,0.000,0.000,0.000,0.000,0.000,0.000,0.000,0.000,0.000,0.000,false,false,false,false,false,false,false,false,false,false,false,false,--.--,--.--,--.--,--.--,--.--,--.--,--.--,--.--,47.6197395,-122.3632507,10TET 47846 74233,1.0,1.0,0.0,3,10,--.--,--.--,,--.--,--.--,--.--,0,0,--.--,--.--,0,0.6,0.8,-0.1,0.2,0.2,-0.0,--.--,--.--,--.--,--.--,--.--,--.--,--.--,--.--,--.--,--.--,--.--,--.--,99.70,62.92,--.--,0,0,0.1,0.2,0.1,0,0,0,--.--,--.--,--.--
2022-08-15 09:47:25.036,8.4,-1.7,94,0.0,0.0,0.0,0.0,0.0,0.000,0.0,0.0,-0.2,0.030,0.039,0.000,0.0,00:00:06,0.1,0,--.--,--.--,--.--,0,0000:00:00,50,0,0,0,40,0,2,--.--,0,0,0,--.--,0.48,172,--.--,98,--.--,--:--:--,0,--.--,09:47:25,8/15/2022,--.--,--.--,--.--,--.--,--.--,--.--,--.--,--.--,--.--,--.--,--.--,--.--,0,0.000,0.000,0.000,0.000,0.000,0.000,0.000,0.000,0.000,0.000,0.000,0.000,false,false,false,false,false,false,false,false,false,false,false,false,--.--,--.--,--.--,--.--,--.--,--.--,--.--,--.--,47.6197395,-122.3632507,10TET 47846 74233,1.0,1.0,0.0,3,10,--.--,--.--,,--.--,--.--,--.--,0,0,--.--,--.--,0,0.6,0.9,-0.3,0.1,0.3,-0.0,--.--,--.--,--.--,--.--,--.--,--.--,--.--,--.--,--.--,--.--,--.--,--.--,99.72,62.92,--.--,0,0,0.1,0.2,0.0,0,0,0,--.--,--.--,--.--
2022-08-15 09:47:26.037,5.3,-0.9,93,0.0,0.0,0.0,0.0,0.0,0.000,-0.0,0.0,-0.2,0.030,0.021,0.000,0.0,00:00:06,0.1,0,--.--,--.--,--.--,0,0000:00:00,50,0,0,0,40,0,2,--.--,0,0,0,--.--,0.49,172,--.--,98,--.--,--:--:--,0,--.--,09:47:26,8/15/2022,--.--,--.--,--.--,--.--,--.--,--.--,--.--,--.--,--.--,--.--,--.--,--.--,0,0.000,0.000,0.000,0.000,0.000,0.000,0.000,0.000,0.000,0.000,0.000,0.000,false,false,false,false,false,false,false,false,false,false,false,false,--.--,--.--,--.--,--.--,--.--,--.--,--.--,--.--,47.6197395,-122.3632507,10TET 47846 74233,1.0,1.0,0.0,3,10,--.--,--.--,,--.--,--.--,--.--,0,0,--.--,--.--,0,0.5,0.9,-0.2,0.2,0.3,0.1,--.--,--.--,--.--,--.--,--.--,--.--,--.--,--.--,--.--,--.--,--.--,--.--,99.72,62.92,--.--,0,0,0.1,0.2,0.1,0,0,0,--.--,--.--,--.--
2022-08-15 09:47:27.036,8.1,-1.2,93,0.0,0.0,0.0,0.0,0.0,0.000,-0.1,-0.1,-0.3,-0.010,-0.054,0.000,0.0,00:00:06,0.1,0,--.--,--.--,--.--,0,0000:00:00,50,0,0,0,40,0,2,--.--,0,0,0,--.--,0.46,172,--.--,98,--.--,--:--:--,0,--.--,09:47:27,8/15/2022,--.--,--.--,--.--,--.--,--.--,--.--,--.--,--.--,--.--,--.--,--.--,--.--,0,0.000,0.000,0.000,0.000,0.000,0.000,0.000,0.000,0.000,0.000,0.000,0.000,false,false,false,false,false,false,false,false,false,false,false,false,--.--,--.--,--.--,--.--,--.--,--.--,--.--,--.--,47.6197395,-122.3632507,10TET 47846 74233,1.0,1.0,0.0,3,10,--.--,--.--,,--.--,--.--,--.--,0,0,--.--,--.--,0,0.7,0.8,-0.1,0.3,0.2,0.1,--.--,--.--,--.--,--.--,--.--,--.--,--.--,--.--,--.--,--.--,--.--,--.--,99.73,62.92,--.--,0,0,0.0,0.1,0.1,0,0,0,--.--,--.--,--.--
2022-08-15 09:47:28.035,8.6,-1.8,53,0.0,0.0,0.0,0.0,0.0,0.000,-0.1,-0.1,-0.3,0.000,-0.040,0.000,0.0,00:00:06,0.3,0,--.--,--.--,--.--,0,0000:00:00,50,0,0,0,40,0,2,--.--,0,0,0,--.--,0.50,172,--.--,98,--.--,--:--:--,0,--.--,09:47:28,8/15/2022,--.--,--.--,--.--,--.--,--.--,--.--,--.--,--.--,--.--,--.--,--.--,--.--,0,0.000,0.000,0.000,0.000,0.000,0.000,0.000,0.000,0.000,0.000,0.000,0.000,false,false,false,false,false,false,false,false,false,false,false,false,--.--,--.--,--.--,--.--,--.--,--.--,--.--,--.--,47.6197395,-122.3632507,10TET 47846 74233,1.0,1.0,0.0,3,10,--.--,--.--,,--.--,--.--,--.--,0,0,--.--,--.--,0,0.6,0.6,-0.1,0.0,0.5,0.1,--.--,--.--,--.--,--.--,--.--,--.--,--.--,--.--,--.--,--.--,--.--,--.--,99.73,62.92,--.--,0,0,0.2,0.3,0.3,0,0,0,--.--,--.--,--.--
2022-08-15 09:47:29.045,7.9,-1.4,27,0.0,0.0,0.0,0.0,0.0,0.000,0.0,0.0,-0.2,0.030,0.037,0.000,0.0,00:00:06,0.5,0,--.--,--.--,--.--,0,0000:00:00,50,0,0,0,40,0,2,--.--,0,0,0,--.--,0.51,172,--.--,98,--.--,--:--:--,0,--.--,09:47:29,8/15/2022,--.--,--.--,--.--,--.--,--.--,--.--,--.--,--.--,--.--,--.--,--.--,--.--,0,0.000,0.000,0.000,0.000,0.000,0.000,0.000,0.000,0.000,0.000,0.000,0.000,false,false,false,false,false,false,false,false,false,false,false,false,--.--,--.--,--.--,--.--,--.--,--.--,--.--,--.--,47.6197395,-122.3632507,10TET 47846 74233,1.0,1.0,0.0,3,10,--.--,--.--,,--.--,--.--,--.--,0,0,--.--,--.--,0,0.8,1.3,-0.3,1.2,1.1,-0.0,--.--,--.--,--.--,--.--,--.--,--.--,--.--,--.--,--.--,--.--,--.--,--.--,99.73,62.92,--.--,0,0,0.4,0.4,0.4,0,0,0,--.--,--.--,--.--
2022-08-15 09:47:30.035,8.9,1.0,324,0.0,0.0,0.0,0.0,0.0,0.000,0.0,-0.1,-0.2,0.010,-0.012,0.000,0.0,00:00:06,0.8,0,--.--,--.--,--.--,0,0000:00:00,50,0,0,0,40,0,2,--.--,0,0,0,--.--,0.51,172,--.--,98,--.--,--:--:--,0,--.--,09:47:30,8/15/2022,--.--,--.--,--.--,--.--,--.--,--.--,--.--,--.--,--.--,--.--,--.--,--.--,0,0.000,0.000,0.000,0.000,0.000,0.000,0.000,0.000,0.000,0.000,0.000,0.000,false,false,false,false,false,false,false,false,false,false,false,false,--.--,--.--,--.--,--.--,--.--,--.--,--.--,--.--,47.6197395,-122.3632507,10TET 47846 74233,1.0,1.0,0.0,3,10,--.--,--.--,,--.--,--.--,--.--,0,0,--.--,--.--,0,1.2,1.6,-0.2,0.9,1.2,0.0,--.--,--.--,--.--,--.--,--.--,--.--,--.--,--.--,--.--,--.--,--.--,--.--,99.75,62.92,--.--,0,0,0.4,0.5,0.2,0,0,0,--.--,--.--,--.--
2022-08-15 09:47:31.054,8.6,1.3,324,0.0,0.0,0.0,0.0,0.0,0.000,-0.1,0.0,-0.1,0.040,0.056,0.000,0.0,00:00:06,1.8,0,--.--,--.--,--.--,0,0000:00:00,50,0,0,0,40,0,2,--.--,0,0,0,--.--,0.52,172,--.--,98,--.--,--:--:--,0,--.--,09:47:31,8/15/2022,--.--,--.--,--.--,--.--,--.--,--.--,--.--,--.--,--.--,--.--,--.--,--.--,0,0.000,0.000,0.000,0.000,0.000,0.000,0.000,0.000,0.000,0.000,0.000,0.000,false,false,false,false,false,false,false,false,false,false,false,false,--.--,--.--,--.--,--.--,--.--,--.--,--.--,--.--,47.6197395,-122.3632507,10TET 47846 74233,1.0,1.0,0.0,3,10,--.--,--.--,,--.--,--.--,--.--,0,0,--.--,--.--,0,2.1,2.0,-0.3,1.6,1.4,0.2,--.--,--.--,--.--,--.--,--.--,--.--,--.--,--.--,--.--,--.--,--.--,--.--,99.77,62.94,--.--,0,0,0.2,0.3,0.2,0,0,0,--.--,--.--,--.--
2022-08-15 09:47:32.033,6.6,1.1,324,0.0,0.0,0.0,0.0,0.0,0.000,-0.2,-0.4,-0.5,-0.080,-0.194,0.000,0.0,00:00:06,2.2,0,--.--,--.--,--.--,0,0000:00:00,50,0,0,0,40,0,2,--.--,0,0,0,--.--,0.54,173,--.--,98,--.--,--:--:--,0,--.--,09:47:32,8/15/2022,--.--,--.--,--.--,--.--,--.--,--.--,--.--,--.--,--.--,--.--,--.--,--.--,0,0.000,0.000,0.000,0.000,0.000,0.000,0.000,0.000,0.000,0.000,0.000,0.000,false,false,false,false,false,false,false,false,false,false,false,false,--.--,--.--,--.--,--.--,--.--,--.--,--.--,--.--,47.6197395,-122.3632507,10TET 47846 74233,1.0,1.0,0.0,3,10,--.--,--.--,,--.--,--.--,--.--,0,0,--.--,--.--,0,2.5,2.1,0.1,1.5,1.2,0.2,--.--,--.--,--.--,--.--,--.--,--.--,--.--,--.--,--.--,--.--,--.--,--.--,99.77,62.94,--.--,0,0,0.1,0.2,0.2,0,0,0,--.--,--.--,--.--
2022-08-15 09:47:33.052,7.2,0.7,313,0.0,0.0,0.0,0.0,0.0,0.000,0.1,-0.0,-0.2,0.020,0.003,0.000,0.0,00:00:06,2.1,0,--.--,--.--,--.--,0,0000:00:00,50,0,0,0,40,0,2,--.--,0,0,0,--.--,0.52,173,--.--,98,--.--,--:--:--,0,--.--,09:47:33,8/15/2022,--.--,--.--,--.--,--.--,--.--,--.--,--.--,--.--,--.--,--.--,--.--,--.--,0,0.000,0.000,0.000,0.000,0.000,0.000,0.000,0.000,0.000,0.000,0.000,0.000,false,false,false,false,false,false,false,false,false,false,false,false,--.--,--.--,--.--,--.--,--.--,--.--,--.--,--.--,47.6197395,-122.3632507,10TET 47846 74233,1.0,1.0,0.0,3,10,--.--,--.--,,--.--,--.--,--.--,0,0,--.--,--.--,0,2.6,1.7,-0.2,1.5,0.7,-0.1,--.--,--.--,--.--,--.--,--.--,--.--,--.--,--.--,--.--,--.--,--.--,--.--,99.79,62.92,--.--,0,0,0.2,0.3,0.2,0,0,0,--.--,--.--,--.--
2022-08-15 09:47:34.064,7.2,2.2,300,0.0,0.0,0.0,0.0,0.0,0.000,0.2,0.2,0.0,0.090,0.159,0.000,0.0,00:00:06,1.9,0,--.--,--.--,--.--,0,0000:00:00,50,0,0,0,40,0,2,--.--,0,0,0,--.--,0.50,173,--.--,98,--.--,--:--:--,0,--.--,09:47:34,8/15/2022,--.--,--.--,--.--,--.--,--.--,--.--,--.--,--.--,--.--,--.--,--.--,--.--,0,0.000,0.000,0.000,0.000,0.000,0.000,0.000,0.000,0.000,0.000,0.000,0.000,false,false,false,false,false,false,false,false,false,false,false,false,--.--,--.--,--.--,--.--,--.--,--.--,--.--,--.--,47.6197395,-122.3632507,10TET 47846 74233,1.0,1.0,0.0,3,10,--.--,--.--,,--.--,--.--,--.--,0,0,--.--,--.--,0,2.5,1.4,-0.5,1.4,0.6,-0.2,--.--,--.--,--.--,--.--,--.--,--.--,--.--,--.--,--.--,--.--,--.--,--.--,99.79,62.92,--.--,0,0,0.2,0.3,0.1,0,0,0,--.--,--.--,--.--
2022-08-15 09:47:35.050,5.4,6.3,300,0.0,0.0,0.0,0.0,0.0,0.000,-0.3,-0.1,-0.2,0.020,0.003,0.000,0.0,00:00:06,1.8,0,--.--,--.--,--.--,0,0000:00:00,50,0,0,0,40,0,2,--.--,0,0,0,--.--,0.47,173,--.--,98,--.--,--:--:--,0,--.--,09:47:35,8/15/2022,--.--,--.--,--.--,--.--,--.--,--.--,--.--,--.--,--.--,--.--,--.--,--.--,0,0.000,0.000,0.000,0.000,0.000,0.000,0.000,0.000,0.000,0.000,0.000,0.000,false,false,false,false,false,false,false,false,false,false,false,false,--.--,--.--,--.--,--.--,--.--,--.--,--.--,--.--,47.6197395,-122.3632507,10TET 47846 74233,1.0,1.0,0.0,3,10,--.--,--.--,,--.--,--.--,--.--,0,0,--.--,--.--,0,2.4,1.2,-0.1,1.3,0.2,0.3,--.--,--.--,--.--,--.--,--.--,--.--,--.--,--.--,--.--,--.--,--.--,--.--,99.81,62.94,--.--,0,0,0.1,0.1,0.1,0,0,0,--.--,--.--,--.--
2022-08-15 09:47:36.049,5.4,7.9,299,0.0,0.0,0.0,0.0,0.0,0.000,0.0,-0.2,-0.4,-0.040,-0.111,0.000,0.0,00:00:06,1.5,0,--.--,--.--,--.--,0,0000:00:00,50,0,0,0,40,0,2,--.--,0,0,0,--.--,0.55,173,--.--,98,--.--,--:--:--,0,--.--,09:47:36,8/15/2022,--.--,--.--,--.--,--.--,--.--,--.--,--.--,--.--,--.--,--.--,--.--,--.--,0,0.000,0.000,0.000,0.000,0.000,0.000,0.000,0.000,0.000,0.000,0.000,0.000,false,false,false,false,false,false,false,false,false,false,false,false,--.--,--.--,--.--,--.--,--.--,--.--,--.--,--.--,47.6197395,-122.3632507,10TET 47846 74233,1.0,1.0,0.0,3,10,--.--,--.--,,--.--,--.--,--.--,0,0,--.--,--.--,0,2.1,0.5,-0.0,0.8,-0.3,-0.0,--.--,--.--,--.--,--.--,--.--,--.--,--.--,--.--,--.--,--.--,--.--,--.--,99.81,62.94,--.--,0,0,0.1,0.2,0.1,0,0,0,--.--,--.--,--.--
2022-08-15 09:47:37.067,6.4,1.2,298,0.0,0.0,0.0,0.0,0.0,0.000,0.2,0.1,-0.1,0.050,0.079,0.000,0.0,00:00:06,1.3,0,--.--,--.--,--.--,0,0000:00:00,50,0,0,0,40,0,2,--.--,0,0,0,--.--,0.54,173,--.--,98,--.--,--:--:--,0,--.--,09:47:37,8/15/2022,--.--,--.--,--.--,--.--,--.--,--.--,--.--,--.--,--.--,--.--,--.--,--.--,0,0.000,0.000,0.000,0.000,0.000,0.000,0.000,0.000,0.000,0.000,0.000,0.000,false,false,false,false,false,false,false,false,false,false,false,false,--.--,--.--,--.--,--.--,--.--,--.--,--.--,--.--,47.6197395,-122.3632507,10TET 47846 74233,1.0,1.0,0.0,3,10,--.--,--.--,,--.--,--.--,--.--,0,0,--.--,--.--,0,1.8,0.2,-0.3,0.7,-0.2,-0.1,--.--,--.--,--.--,--.--,--.--,--.--,--.--,--.--,--.--,--.--,--.--,--.--,99.82,62.92,--.--,0,0,0.4,0.2,0.2,0,0,0,--.--,--.--,--.--
2022-08-15 09:47:38.066,3.8,0.7,296,0.0,0.0,0.0,0.0,0.0,0.000,-0.3,-0.2,-0.4,-0.020,-0.081,0.000,0.0,00:00:06,1.0,0,--.--,--.--,--.--,0,0000:00:00,50,0,0,0,40,0,2,--.--,0,0,0,--.--,0.52,173,--.--,98,--.--,--:--:--,0,--.--,09:47:38,8/15/2022,--.--,--.--,--.--,--.--,--.--,--.--,--.--,--.--,--.--,--.--,--.--,--.--,0,0.000,0.000,0.000,0.000,0.000,0.000,0.000,0.000,0.000,0.000,0.000,0.000,false,false,false,false,false,false,false,false,false,false,false,false,--.--,--.--,--.--,--.--,--.--,--.--,--.--,--.--,47.6197395,-122.3632507,10TET 47846 74233,1.0,1.0,0.0,3,10,--.--,--.--,,--.--,--.--,--.--,0,0,--.--,--.--,0,1.3,0.2,-0.0,0.2,-0.3,0.3,--.--,--.--,--.--,--.--,--.--,--.--,--.--,--.--,--.--,--.--,--.--,--.--,99.82,62.92,--.--,0,0,0.1,0.1,0.1,0,0,0,--.--,--.--,--.--
2022-08-15 09:47:39.064,7.7,1.9,296,0.0,0.0,0.0,0.0,0.0,0.000,0.1,0.0,-0.2,0.020,0.011,0.000,0.0,00:00:06,1.0,0,--.--,--.--,--.--,0,0000:00:00,50,0,0,0,40,0,2,--.--,0,0,0,--.--,0.57,174,--.--,98,--.--,--:--:--,0,--.--,09:47:39,8/15/2022,--.--,--.--,--.--,--.--,--.--,--.--,--.--,--.--,--.--,--.--,--.--,--.--,0,0.000,0.000,0.000,0.000,0.000,0.000,0.000,0.000,0.000,0.000,0.000,0.000,false,false,false,false,false,false,false,false,false,false,false,false,--.--,--.--,--.--,--.--,--.--,--.--,--.--,--.--,47.6197395,-122.3632507,10TET 47846 74233,1.0,1.0,0.0,3,10,--.--,--.--,,--.--,--.--,--.--,0,0,--.--,--.--,0,0.9,-0.1,-0.2,0.2,-0.6,-0.2,--.--,--.--,--.--,--.--,--.--,--.--,--.--,--.--,--.--,--.--,--.--,--.--,99.84,62.92,--.--,0,0,0.0,0.1,0.0,0,0,0,--.--,--.--,--.--
2022-08-15 09:47:40.071,4.9,5.2,297,0.0,0.0,0.0,0.0,0.0,0.000,0.1,0.2,0.0,0.090,0.153,0.000,0.0,00:00:06,1.0,0,--.--,--.--,--.--,0,0000:00:00,50,0,0,0,40,0,2,--.--,0,0,0,--.--,0.51,174,--.--,98,--.--,--:--:--,0,--.--,09:47:40,8/15/2022,--.--,--.--,--.--,--.--,--.--,--.--,--.--,--.--,--.--,--.--,--.--,--.--,0,0.000,0.000,0.000,0.000,0.000,0.000,0.000,0.000,0.000,0.000,0.000,0.000,false,false,false,false,false,false,false,false,false,false,false,false,--.--,--.--,--.--,--.--,--.--,--.--,--.--,--.--,47.6197395,-122.3632507,10TET 47846 74233,1.0,1.0,0.0,3,10,--.--,--.--,,--.--,--.--,--.--,0,0,--.--,--.--,0,0.7,-0.1,-0.4,0.0,-0.2,-0.1,--.--,--.--,--.--,--.--,--.--,--.--,--.--,--.--,--.--,--.--,--.--,--.--,99.86,62.92,--.--,0,0,0.2,0.2,0.2,0,0,0,--.--,--.--,--.--
2022-08-15 09:47:41.069,6.8,-0.8,295,0.0,0.0,0.0,0.0,0.0,0.000,-0.2,-0.2,-0.3,-0.020,-0.074,0.000,0.0,00:00:06,0.9,0,--.--,--.--,--.--,0,0000:00:00,50,0,0,0,40,0,2,--.--,0,0,0,--.--,0.53,174,--.--,98,--.--,--:--:--,0,--.--,09:47:41,8/15/2022,--.--,--.--,--.--,--.--,--.--,--.--,--.--,--.--,--.--,--.--,--.--,--.--,0,0.000,0.000,0.000,0.000,0.000,0.000,0.000,0.000,0.000,0.000,0.000,0.000,false,false,false,false,false,false,false,false,false,false,false,false,--.--,--.--,--.--,--.--,--.--,--.--,--.--,--.--,47.6197395,-122.3632507,10TET 47846 74233,1.0,1.0,0.0,3,10,--.--,--.--,,--.--,--.--,--.--,0,0,--.--,--.--,0,0.6,-0.0,-0.0,0.1,-0.3,0.2,--.--,--.--,--.--,--.--,--.--,--.--,--.--,--.--,--.--,--.--,--.--,--.--,99.86,62.92,--.--,0,0,0.3,0.3,0.2,0,0,0,--.--,--.--,--.--
2022-08-15 09:47:42.067,3.3,2.2,295,0.0,0.0,0.0,0.0,0.0,0.000,-0.2,-0.2,-0.4,-0.040,-0.118,0.000,0.0,00:00:06,1.1,0,--.--,--.--,--.--,0,0000:00:00,50,0,0,0,40,0,2,--.--,0,0,0,--.--,0.52,174,--.--,98,--.--,--:--:--,0,--.--,09:47:42,8/15/2022,--.--,--.--,--.--,--.--,--.--,--.--,--.--,--.--,--.--,--.--,--.--,--.--,0,0.000,0.000,0.000,0.000,0.000,0.000,0.000,0.000,0.000,0.000,0.000,0.000,false,false,false,false,false,false,false,false,false,false,false,false,--.--,--.--,--.--,--.--,--.--,--.--,--.--,--.--,47.6197395,-122.3632507,10TET 47846 74233,1.0,1.0,0.0,3,10,--.--,--.--,,--.--,--.--,--.--,0,0,--.--,--.--,0,0.5,-0.2,0.1,-0.2,-0.5,0.2,--.--,--.--,--.--,--.--,--.--,--.--,--.--,--.--,--.--,--.--,--.--,--.--,99.88,62.92,--.--,0,0,0.1,0.2,0.1,0,0,0,--.--,--.--,--.--
2022-08-15 09:47:43.082,8.9,1.1,291,0.0,0.0,0.0,0.0,0.0,0.000,0.2,0.2,0.0,0.080,0.119,0.000,0.0,00:00:06,1.1,0,--.--,--.--,--.--,0,0000:00:00,50,0,0,0,40,0,2,--.--,0,0,0,--.--,0.52,174,--.--,98,--.--,--:--:--,0,--.--,09:47:43,8/15/2022,--.--,--.--,--.--,--.--,--.--,--.--,--.--,--.--,--.--,--.--,--.--,--.--,0,0.000,0.000,0.000,0.000,0.000,0.000,0.000,0.000,0.000,0.000,0.000,0.000,false,false,false,false,false,false,false,false,false,false,false,false,--.--,--.--,--.--,--.--,--.--,--.--,--.--,--.--,47.6197395,-122.3632507,10TET 47846 74233,1.0,1.0,0.0,3,10,--.--,--.--,,--.--,--.--,--.--,0,0,--.--,--.--,0,0.3,-0.2,-0.4,0.1,-0.2,-0.2,--.--,--.--,--.--,--.--,--.--,--.--,--.--,--.--,--.--,--.--,--.--,--.--,99.88,62.92,--.--,0,0,0.4,0.4,0.2,0,0,0,--.--,--.--,--.--
2022-08-15 09:47:44.099,2.4,5.8,290,0.0,0.0,0.0,0.0,0.0,0.000,-0.1,-0.1,-0.2,0.010,-0.013,0.000,0.0,00:00:06,0.9,0,--.--,--.--,--.--,0,0000:00:00,50,0,0,0,40,0,2,--.--,0,0,0,--.--,0.57,174,--.--,98,--.--,--:--:--,0,--.--,09:47:44,8/15/2022,--.--,--.--,--.--,--.--,--.--,--.--,--.--,--.--,--.--,--.--,--.--,--.--,0,0.000,0.000,0.000,0.000,0.000,0.000,0.000,0.000,0.000,0.000,0.000,0.000,false,false,false,false,false,false,false,false,false,false,false,false,--.--,--.--,--.--,--.--,--.--,--.--,--.--,--.--,47.6197395,-122.3632507,10TET 47846 74233,1.0,1.0,0.0,3,10,--.--,--.--,,--.--,--.--,--.--,0,0,--.--,--.--,0,0.3,0.1,-0.1,-0.2,-0.3,0.1,--.--,--.--,--.--,--.--,--.--,--.--,--.--,--.--,--.--,--.--,--.--,--.--,99.90,62.92,--.--,0,0,0.1,0.2,0.2,0,0,0,--.--,--.--,--.--
2022-08-15 09:47:45.082,9.3,8.3,287,0.0,0.0,0.0,0.0,0.0,0.000,0.0,-0.1,-0.2,0.010,-0.012,0.000,0.0,00:00:06,1.0,0,--.--,--.--,--.--,0,0000:00:00,50,0,0,0,40,0,2,--.--,0,0,0,--.--,0.49,174,--.--,98,--.--,--:--:--,0,--.--,09:47:45,8/15/2022,--.--,--.--,--.--,--.--,--.--,--.--,--.--,--.--,--.--,--.--,--.--,--.--,0,0.000,0.000,0.000,0.000,0.000,0.000,0.000,0.000,0.000,0.000,0.000,0.000,false,false,false,false,false,false,false,false,false,false,false,false,--.--,--.--,--.--,--.--,--.--,--.--,--.--,--.--,47.6197395,-122.3632507,10TET 47846 74233,1.0,1.0,0.0,3,10,--.--,--.--,,--.--,--.--,--.--,0,0,--.--,--.--,0,0.2,-0.1,-0.1,0.0,-0.5,0.0,--.--,--.--,--.--,--.--,--.--,--.--,--.--,--.--,--.--,--.--,--.--,--.--,99.91,62.92,--.--,0,0,0.1,0.2,0.2,0,0,0,--.--,--.--,--.--
2022-08-15 09:47:46.081,2.8,9.8,286,0.0,0.0,0.0,0.0,0.0,0.000,-0.0,0.0,-0.1,0.040,0.057,0.000,0.0,00:00:06,1.0,0,--.--,--.--,--.--,0,0000:00:00,50,0,0,0,40,0,2,--.--,0,0,0,--.--,0.54,175,--.--,98,--.--,--:--:--,0,--.--,09:47:46,8/15/2022,--.--,--.--,--.--,--.--,--.--,--.--,--.--,--.--,--.--,--.--,--.--,--.--,0,0.000,0.000,0.000,0.000,0.000,0.000,0.000,0.000,0.000,0.000,0.000,0.000,false,false,false,false,false,false,false,false,false,false,false,false,--.--,--.--,--.--,--.--,--.--,--.--,--.--,--.--,47.6197395,-122.3632507,10TET 47846 74233,1.0,1.0,0.0,3,10,--.--,--.--,,--.--,--.--,--.--,0,0,--.--,--.--,0,0.3,-0.1,-0.2,-0.1,-0.3,0.0,--.--,--.--,--.--,--.--,--.--,--.--,--.--,--.--,--.--,--.--,--.--,--.--,99.91,62.92,--.--,0,0,0.0,0.1,0.0,0,0,0,--.--,--.--,--.--
2022-08-15 09:47:47.088,8.3,4.4,286,0.0,0.0,0.0,0.0,0.0,0.000,-0.2,-0.2,-0.4,-0.030,-0.093,0.000,0.0,00:00:06,1.0,0,--.--,--.--,--.--,0,0000:00:00,50,0,0,0,40,0,2,--.--,0,0,0,--.--,0.50,175,--.--,98,--.--,--:--:--,0,--.--,09:47:47,8/15/2022,--.--,--.--,--.--,--.--,--.--,--.--,--.--,--.--,--.--,--.--,--.--,--.--,0,0.000,0.000,0.000,0.000,0.000,0.000,0.000,0.000,0.000,0.000,0.000,0.000,false,false,false,false,false,false,false,false,false,false,false,false,--.--,--.--,--.--,--.--,--.--,--.--,--.--,--.--,47.6197395,-122.3632507,10TET 47846 74233,1.0,1.0,0.0,3,10,--.--,--.--,,--.--,--.--,--.--,0,0,--.--,--.--,0,0.3,-0.1,0.0,-0.0,-0.3,0.2,--.--,--.--,--.--,--.--,--.--,--.--,--.--,--.--,--.--,--.--,--.--,--.--,99.93,62.92,--.--,0,0,0.1,0.1,0.1,0,0,0,--.--,--.--,--.--
2022-08-15 09:47:48.100,2.0,9.7,284,0.0,0.0,0.0,0.0,0.0,0.000,0.0,-0.2,-0.4,-0.040,-0.110,0.000,0.0,00:00:06,1.2,0,--.--,--.--,--.--,0,0000:00:00,50,0,0,0,40,0,2,--.--,0,0,0,--.--,0.50,175,--.--,98,--.--,--:--:--,0,--.--,09:47:48,8/15/2022,--.--,--.--,--.--,--.--,--.--,--.--,--.--,--.--,--.--,--.--,--.--,--.--,0,0.000,0.000,0.000,0.000,0.000,0.000,0.000,0.000,0.000,0.000,0.000,0.000,false,false,false,false,false,false,false,false,false,false,false,false,--.--,--.--,--.--,--.--,--.--,--.--,--.--,--.--,47.6197395,-122.3632507,10TET 47846 74233,1.0,1.0,0.0,3,10,--.--,--.--,,--.--,--.--,--.--,0,0,--.--,--.--,0,0.1,-0.2,0.0,-0.3,-0.6,-0.1,--.--,--.--,--.--,--.--,--.--,--.--,--.--,--.--,--.--,--.--,--.--,--.--,99.93,62.92,--.--,0,0,0.1,0.2,0.1,0,0,0,--.--,--.--,--.--
2022-08-15 09:47:49.085,9.0,8.2,284,0.0,0.0,0.0,0.0,0.0,0.000,0.1,0.3,0.2,0.130,0.240,0.000,0.0,00:00:06,1.2,0,--.--,--.--,--.--,0,0000:00:00,50,0,0,0,40,0,2,--.--,0,0,0,--.--,0.48,175,--.--,98,--.--,--:--:--,0,--.--,09:47:49,8/15/2022,--.--,--.--,--.--,--.--,--.--,--.--,--.--,--.--,--.--,--.--,--.--,--.--,0,0.000,0.000,0.000,0.000,0.000,0.000,0.000,0.000,0.000,0.000,0.000,0.000,false,false,false,false,false,false,false,false,false,false,false,false,--.--,--.--,--.--,--.--,--.--,--.--,--.--,--.--,47.6197395,-122.3632507,10TET 47846 74233,1.0,1.0,0.0,3,10,--.--,--.--,,--.--,--.--,--.--,0,0,--.--,--.--,0,0.1,-0.2,-0.5,0.1,-0.3,-0.1,--.--,--.--,--.--,--.--,--.--,--.--,--.--,--.--,--.--,--.--,--.--,--.--,99.93,62.91,--.--,0,0,0.1,0.1,0.1,0,0,0,--.--,--.--,--.--
2022-08-15 09:47:50.085,2.3,8.2,284,0.0,0.0,0.0,0.0,0.0,0.000,-0.3,-0.2,-0.4,-0.040,-0.095,0.000,0.0,00:00:06,1.0,0,--.--,--.--,--.--,0,0000:00:00,50,0,0,0,40,0,2,--.--,0,0,0,--.--,0.52,175,--.--,98,--.--,--:--:--,0,--.--,09:47:50,8/15/2022,--.--,--.--,--.--,--.--,--.--,--.--,--.--,--.--,--.--,--.--,--.--,--.--,0,0.000,0.000,0.000,0.000,0.000,0.000,0.000,0.000,0.000,0.000,0.000,0.000,false,false,false,false,false,false,false,false,false,false,false,false,--.--,--.--,--.--,--.--,--.--,--.--,--.--,--.--,47.6197395,-122.3632507,10TET 47846 74233,1.0,1.0,0.0,3,10,--.--,--.--,,--.--,--.--,--.--,0,0,--.--,--.--,0,0.2,0.0,0.1,-0.2,-0.2,0.3,--.--,--.--,--.--,--.--,--.--,--.--,--.--,--.--,--.--,--.--,--.--,--.--,99.95,62.92,--.--,0,0,0.0,0.1,0.0,0,0,0,--.--,--.--,--.--
2022-08-15 09:47:51.086,8.2,8.8,284,0.0,0.0,0.0,0.0,0.0,0.000,0.1,-0.1,-0.3,-0.020,-0.067,0.000,0.0,00:00:06,1.2,0,--.--,--.--,--.--,0,0000:00:00,50,0,0,0,40,0,2,--.--,0,0,0,--.--,0.53,175,--.--,98,--.--,--:--:--,0,--.--,09:47:51,8/15/2022,--.--,--.--,--.--,--.--,--.--,--.--,--.--,--.--,--.--,--.--,--.--,--.--,0,0.000,0.000,0.000,0.000,0.000,0.000,0.000,0.000,0.000,0.000,0.000,0.000,false,false,false,false,false,false,false,false,false,false,false,false,--.--,--.--,--.--,--.--,--.--,--.--,--.--,--.--,47.6197395,-122.3632507,10TET 47846 74233,1.0,1.0,0.0,3,10,--.--,--.--,,--.--,--.--,--.--,0,0,--.--,--.--,0,0.0,-0.1,-0.1,-0.1,-0.5,-0.1,--.--,--.--,--.--,--.--,--.--,--.--,--.--,--.--,--.--,--.--,--.--,--.--,99.97,62.92,--.--,0,0,0.1,0.1,0.0,0,0,0,--.--,--.--,--.--
2022-08-15 09:47:52.088,4.3,8.4,283,0.0,0.0,0.0,0.0,0.0,0.000,0.0,0.0,-0.1,0.040,0.054,0.000,0.0,00:00:06,1.1,0,--.--,--.--,--.--,0,0000:00:00,50,0,0,0,40,0,2,--.--,0,0,0,--.--,0.48,175,--.--,98,--.--,--:--:--,0,--.--,09:47:52,8/15/2022,--.--,--.--,--.--,--.--,--.--,--.--,--.--,--.--,--.--,--.--,--.--,--.--,0,0.000,0.000,0.000,0.000,0.000,0.000,0.000,0.000,0.000,0.000,0.000,0.000,false,false,false,false,false,false,false,false,false,false,false,false,--.--,--.--,--.--,--.--,--.--,--.--,--.--,--.--,47.6197395,-122.3632507,10TET 47846 74233,1.0,1.0,0.0,3,10,--.--,--.--,,--.--,--.--,--.--,0,0,--.--,--.--,0,0.1,-0.1,-0.3,-0.2,-0.3,0.0,--.--,--.--,--.--,--.--,--.--,--.--,--.--,--.--,--.--,--.--,--.--,--.--,99.97,62.92,--.--,0,0,0.1,0.2,0.1,0,0,0,--.--,--.--,--.--
2022-08-15 09:47:53.099,8.2,5.6,284,0.0,0.0,0.0,0.0,0.0,0.000,-0.2,-0.1,-0.2,0.000,-0.015,0.000,0.0,00:00:06,1.0,0,--.--,--.--,--.--,0,0000:00:00,50,0,0,0,40,0,2,--.--,0,0,0,--.--,0.49,176,--.--,98,--.--,--:--:--,0,--.--,09:47:53,8/15/2022,--.--,--.--,--.--,--.--,--.--,--.--,--.--,--.--,--.--,--.--,--.--,--.--,0,0.000,0.000,0.000,0.000,0.000,0.000,0.000,0.000,0.000,0.000,0.000,0.000,false,false,false,false,false,false,false,false,false,false,false,false,--.--,--.--,--.--,--.--,--.--,--.--,--.--,--.--,47.6197395,-122.3632507,10TET 47846 74233,1.0,1.0,0.0,3,10,--.--,--.--,,--.--,--.--,--.--,0,0,--.--,--.--,0,0.1,0.0,-0.1,-0.1,-0.2,0.2,--.--,--.--,--.--,--.--,--.--,--.--,--.--,--.--,--.--,--.--,--.--,--.--,99.99,62.92,--.--,0,0,0.2,0.1,0.2,0,0,0,--.--,--.--,--.--
2022-08-15 09:47:54.084,4.7,2.6,287,0.0,0.0,0.0,0.0,0.0,0.000,0.0,-0.1,-0.2,0.010,-0.018,0.000,0.0,00:00:06,1.1,0,--.--,--.--,--.--,0,0000:00:00,50,0,0,0,40,0,2,--.--,0,0,0,--.--,0.51,176,--.--,98,--.--,--:--:--,0,--.--,09:47:54,8/15/2022,--.--,--.--,--.--,--.--,--.--,--.--,--.--,--.--,--.--,--.--,--.--,--.--,0,0.000,0.000,0.000,0.000,0.000,0.000,0.000,0.000,0.000,0.000,0.000,0.000,false,false,false,false,false,false,false,false,false,false,false,false,--.--,--.--,--.--,--.--,--.--,--.--,--.--,--.--,47.6197395,-122.3632507,10TET 47846 74233,1.0,1.0,0.0,3,10,--.--,--.--,,--.--,--.--,--.--,0,0,--.--,--.--,0,-0.0,0.0,-0.1,-0.3,-0.1,-0.0,--.--,--.--,--.--,--.--,--.--,--.--,--.--,--.--,--.--,--.--,--.--,--.--,99.99,62.92,--.--,0,0,0.6,0.4,0.4,0,0,0,--.--,--.--,--.--
2022-08-15 09:47:55.085,8.3,1.0,286,0.0,0.0,0.0,0.0,0.0,0.000,0.2,0.1,-0.0,0.070,0.101,0.000,0.0,00:00:06,0.9,0,--.--,--.--,--.--,0,0000:00:00,50,0,0,0,40,0,2,--.--,0,0,0,--.--,0.56,176,--.--,98,--.--,--:--:--,0,--.--,09:47:55,8/15/2022,--.--,--.--,--.--,--.--,--.--,--.--,--.--,--.--,--.--,--.--,--.--,--.--,0,0.000,0.000,0.000,0.000,0.000,0.000,0.000,0.000,0.000,0.000,0.000,0.000,false,false,false,false,false,false,false,false,false,false,false,false,--.--,--.--,--.--,--.--,--.--,--.--,--.--,--.--,47.6197395,-122.3632507,10TET 47846 74233,1.0,1.0,0.0,3,10,--.--,--.--,,--.--,--.--,--.--,0,0,--.--,--.--,0,-0.0,0.2,-0.4,-0.1,0.0,-0.2,--.--,--.--,--.--,--.--,--.--,--.--,--.--,--.--,--.--,--.--,--.--,--.--,100.00,62.92,--.--,0,0,0.1,0.1,0.1,0,0,0,--.--,--.--,--.--
2022-08-15 09:47:56.082,3.4,1.1,286,0.0,0.0,0.0,0.0,0.0,0.000,-0.2,-0.2,-0.4,-0.030,-0.078,0.000,0.0,00:00:06,0.7,0,--.--,--.--,--.--,0,0000:00:00,50,0,0,0,40,0,2,--.--,0,0,0,--.--,0.59,176,--.--,98,--.--,--:--:--,0,--.--,09:47:56,8/15/2022,--.--,--.--,--.--,--.--,--.--,--.--,--.--,--.--,--.--,--.--,--.--,--.--,0,0.000,0.000,0.000,0.000,0.000,0.000,0.000,0.000,0.000,0.000,0.000,0.000,false,false,false,false,false,false,false,false,false,false,false,false,--.--,--.--,--.--,--.--,--.--,--.--,--.--,--.--,47.6197395,-122.3632507,10TET 47846 74233,1.0,1.0,0.0,3,10,--.--,--.--,,--.--,--.--,--.--,0,0,--.--,--.--,0,0.1,0.4,0.0,-0.2,0.0,0.2,--.--,--.--,--.--,--.--,--.--,--.--,--.--,--.--,--.--,--.--,--.--,--.--,100.02,62.92,--.--,0,0,0.0,0.0,0.0,0,0,0,--.--,--.--,--.--
2022-08-15 09:47:57.083,6.9,1.5,286,0.0,0.0,0.0,0.0,0.0,0.000,0.0,-0.1,-0.2,0.010,-0.018,0.000,0.0,00:00:06,0.9,0,--.--,--.--,--.--,0,0000:00:00,50,0,0,0,40,0,2,--.--,0,0,0,--.--,0.54,176,--.--,98,--.--,--:--:--,0,--.--,09:47:57,8/15/2022,--.--,--.--,--.--,--.--,--.--,--.--,--.--,--.--,--.--,--.--,--.--,--.--,0,0.000,0.000,0.000,0.000,0.000,0.000,0.000,0.000,0.000,0.000,0.000,0.000,false,false,false,false,false,false,false,false,false,false,false,false,--.--,--.--,--.--,--.--,--.--,--.--,--.--,--.--,47.6197395,-122.3632507,10TET 47846 74233,1.0,1.0,0.0,3,10,--.--,--.--,,--.--,--.--,--.--,0,0,--.--,--.--,0,-0.0,0.3,-0.1,-0.3,-0.1,-0.0,--.--,--.--,--.--,--.--,--.--,--.--,--.--,--.--,--.--,--.--,--.--,--.--,100.02,62.91,--.--,0,0,0.1,0.1,0.1,0,0,0,--.--,--.--,--.--
2022-08-15 09:47:58.083,4.9,1.1,286,0.0,0.0,0.0,0.0,0.0,0.000,0.0,0.0,-0.1,0.040,0.060,0.000,0.0,00:00:06,0.8,0,--.--,--.--,--.--,0,0000:00:00,50,0,0,0,40,0,2,--.--,0,0,0,--.--,0.54,176,--.--,98,--.--,--:--:--,0,--.--,09:47:58,8/15/2022,--.--,--.--,--.--,--.--,--.--,--.--,--.--,--.--,--.--,--.--,--.--,--.--,0,0.000,0.000,0.000,0.000,0.000,0.000,0.000,0.000,0.000,0.000,0.000,0.000,false,false,false,false,false,false,false,false,false,false,false,false,--.--,--.--,--.--,--.--,--.--,--.--,--.--,--.--,47.6197395,-122.3632507,10TET 47846 74233,1.0,1.0,0.0,3,10,--.--,--.--,,--.--,--.--,--.--,0,0,--.--,--.--,0,0.0,0.4,-0.3,-0.1,0.1,-0.1,--.--,--.--,--.--,--.--,--.--,--.--,--.--,--.--,--.--,--.--,--.--,--.--,100.04,62.92,--.--,0,0,0.5,0.8,0.4,0,0,0,--.--,--.--,--.--
