Timestamp,roll,pitch,heading,rollRate,pitchRate,yawRate,groundSpeed,airSpeed,airSpeedSetpoint,climbRate,altitudeRelative,altitudeAMSL,altitudeTuning,altitudeTuningSetpoint,xTrackError,flightDistance,flightTime,distanceToHome,missionItemIndex,headingToNextWP,headingToHome,distanceToGCS,throttlePct,hobbs,apmSubInfo.cameraTilt,apmSubInfo.tetherTurns,apmSubInfo.lights1,apmSubInfo.lights2,apmSubInfo.pilotGain,apmSubInfo.inputHold,apmSubInfo.rollPitchToggle,apmSubInfo.rangefinderDistance,battery0.id,battery0.batteryFunction,battery0.batteryType,battery0.voltage,battery0.current,battery0.mahConsumed,battery0.temperature,battery0.percentRemaining,battery0.timeRemaining,battery0.timeRemainingStr,battery0.chargeState,battery0.instantPower,clock.currentTime,clock.currentDate,distanceSensor.rotationNone,distanceSensor.rotationYaw45,distanceSensor.rotationYaw90,distanceSensor.rotationYaw135,distanceSensor.rotationYaw180,distanceSensor.rotationYaw225,distanceSensor.rotationYaw270,distanceSensor.rotationYaw315,distanceSensor.rotationPitch90,distanceSensor.rotationPitch270,distanceSensor.minDistance,distanceSensor.maxDistance,escStatus.index,escStatus.rpm1,escStatus.rpm2,escStatus.rpm3,escStatus.rpm4,escStatus.current1,escStatus.current2,escStatus.current3,escStatus.current4,escStatus.voltage1,escStatus.voltage2,escStatus.voltage3,escStatus.voltage4,estimatorStatus.goodAttitudeEsimate,estimatorStatus.goodHorizVelEstimate,estimatorStatus.goodVertVelEstimate,estimatorStatus.goodHorizPosRelEstimate,estimatorStatus.goodHorizPosAbsEstimate,estimatorStatus.goodVertPosAbsEstimate,estimatorStatus.goodVertPosAGLEstimate,estimatorStatus.goodConstPosModeEstimate,estimatorStatus.goodPredHorizPosRelEstimate,estimatorStatus.goodPredHorizPosAbsEstimate,estimatorStatus.gpsGlitch,estimatorStatus.accelError,estimatorStatus.velRatio,estimatorStatus.horizPosRatio,estimatorStatus.vertPosRatio,estimatorStatus.magRatio,estimatorStatus.haglRatio,estimatorStatus.tasRatio,estimatorStatus.horizPosAccuracy,estimatorStatus.vertPosAccuracy,gps.lat,gps.lon,gps.mgrs,gps.hdop,gps.vdop,gps.courseOverGround,gps.lock,gps.count,gps2.lat,gps2.lon,gps2.mgrs,gps2.hdop,gps2.vdop,gps2.courseOverGround,gps2.lock,gps2.count,hygrometer.temperature,hygrometer.humidity,hygrometer.hygrometerid,localPosition.x,localPosition.y,localPosition.z,localPosition.vx,localPosition.vy,localPosition.vz,localPositionSetpoint.x,localPositionSetpoint.y,localPositionSetpoint.z,localPositionSetpoint.vx,localPositionSetpoint.vy,localPositionSetpoint.vz,setpoint.roll,setpoint.pitch,setpoint.yaw,setpoint.rollRate,setpoint.pitchRate,setpoint.yawRate,temperature.temperature1,temperature.temperature2,temperature.temperature3,terrain.blocksPending,terrain.blocksLoaded,vibration.xAxis,vibration.yAxis,vibration.zAxis,vibration.clipCount1,vibration.clipCount2,vibration.clipCount3,wind.direction,wind.speed,wind.verticalSpeed
2022-08-15 11:57:51.149,2.5,2.0,64,0.0,0.0,0.0,0.0,0.0,0.000,-0.2,-0.1,6.3,-0.080,-0.049,0.000,0.0,00:00:00,0.8,0,--.--,--.--,--.--,35,0000:00:00,50,0,0,10,30,0,2,--.--,0,0,0,--.--,11.51,7302,--.--,53,--.--,--:--:--,0,--.--,11:57:51,8/15/2022,--.--,--.--,--.--,--.--,--.--,--.--,--.--,--.--,--.--,--.--,--.--,--.--,0,0.000,0.000,0.000,0.000,0.000,0.000,0.000,0.000,0.000,0.000,0.000,0.000,false,false,false,false,false,false,false,false,false,false,false,false,--.--,--.--,--.--,--.--,--.--,--.--,--.--,--.--,47.6173858,-122.3603973,10TET 48063 73973,1.0,1.0,0.0,3,10,--.--,--.--,,--.--,--.--,--.--,0,0,--.--,--.--,0,-1720.2,1407.8,-0.2,0.6,0.1,0.3,--.--,--.--,--.--,--.--,--.--,--.--,--.--,--.--,--.--,--.--,--.--,--.--,108.30,59.27,--.--,0,0,0.4,0.3,0.4,0,2,0,--.--,--.--,--.--
2022-08-15 11:57:52.143,3.5,-5.4,62,0.0,0.0,0.0,0.0,0.0,0.000,-0.0,-0.2,6.2,-0.110,-0.111,0.000,0.0,00:00:01,1.2,0,--.--,--.--,--.--,36,0000:00:00,50,0,0,10,30,0,2,--.--,0,0,0,--.--,7.43,7304,--.--,53,--.--,--:--:--,0,--.--,11:57:52,8/15/2022,--.--,--.--,--.--,--.--,--.--,--.--,--.--,--.--,--.--,--.--,--.--,--.--,0,0.000,0.000,0.000,0.000,0.000,0.000,0.000,0.000,0.000,0.000,0.000,0.000,false,false,false,false,false,false,false,false,false,false,false,false,--.--,--.--,--.--,--.--,--.--,--.--,--.--,--.--,47.6173858,-122.3603973,10TET 48063 73973,1.0,1.0,0.0,3,10,--.--,--.--,,--.--,--.--,--.--,0,0,--.--,--.--,0,-1719.7,1407.6,-0.1,0.4,0.3,0.1,--.--,--.--,--.--,--.--,--.--,--.--,--.--,--.--,--.--,--.--,--.--,--.--,108.30,59.18,--.--,0,0,0.3,0.3,0.3,0,2,0,--.--,--.--,--.--
2022-08-15 11:57:53.135,3.7,-3.8,61,0.0,0.0,0.0,0.0,0.0,0.000,0.0,-0.5,5.9,-0.200,-0.285,0.000,0.0,00:00:01,1.7,0,--.--,--.--,--.--,46,0000:00:00,50,0,0,10,30,0,2,--.--,0,0,0,--.--,5.43,7306,--.--,53,--.--,--:--:--,0,--.--,11:57:53,8/15/2022,--.--,--.--,--.--,--.--,--.--,--.--,--.--,--.--,--.--,--.--,--.--,--.--,0,0.000,0.000,0.000,0.000,0.000,0.000,0.000,0.000,0.000,0.000,0.000,0.000,false,false,false,false,false,false,false,false,false,false,false,false,--.--,--.--,--.--,--.--,--.--,--.--,--.--,--.--,47.6173858,-122.3603973,10TET 48063 73973,1.0,1.0,0.0,3,10,--.--,--.--,,--.--,--.--,--.--,0,0,--.--,--.--,0,-1719.5,1407.2,0.2,0.4,0.0,-0.0,--.--,--.--,--.--,--.--,--.--,--.--,--.--,--.--,--.--,--.--,--.--,--.--,108.32,59.11,--.--,0,0,0.4,0.4,0.3,0,2,0,--.--,--.--,--.--
2022-08-15 11:57:54.144,0.1,-2.7,67,0.0,0.0,0.0,0.0,0.0,0.000,-0.1,-0.5,5.8,-0.210,-0.292,0.000,0.0,00:00:02,1.7,0,--.--,--.--,--.--,51,0000:00:00,50,0,0,10,30,0,2,--.--,0,0,0,--.--,5.16,7308,--.--,53,--.--,--:--:--,0,--.--,11:57:54,8/15/2022,--.--,--.--,--.--,--.--,--.--,--.--,--.--,--.--,--.--,--.--,--.--,--.--,0,0.000,0.000,0.000,0.000,0.000,0.000,0.000,0.000,0.000,0.000,0.000,0.000,false,false,false,false,false,false,false,false,false,false,false,false,--.--,--.--,--.--,--.--,--.--,--.--,--.--,--.--,47.6173858,-122.3603897,10TET 48063 73973,1.0,1.0,0.0,3,10,--.--,--.--,,--.--,--.--,--.--,0,0,--.--,--.--,0,-1719.6,1407.1,0.3,0.1,0.0,0.1,--.--,--.--,--.--,--.--,--.--,--.--,--.--,--.--,--.--,--.--,--.--,--.--,108.32,59.00,--.--,0,0,0.3,0.4,0.3,0,2,0,--.--,--.--,--.--
2022-08-15 11:57:55.138,-1.2,-2.1,66,0.0,0.0,0.0,0.0,0.0,0.000,0.2,-0.4,5.9,-0.180,-0.245,0.000,0.0,00:00:03,0.9,0,--.--,--.--,--.--,45,0000:00:00,50,0,0,10,30,0,2,--.--,0,0,0,--.--,4.91,7309,--.--,53,--.--,--:--:--,0,--.--,11:57:55,8/15/2022,--.--,--.--,--.--,--.--,--.--,--.--,--.--,--.--,--.--,--.--,--.--,--.--,0,0.000,0.000,0.000,0.000,0.000,0.000,0.000,0.000,0.000,0.000,0.000,0.000,false,false,false,false,false,false,false,false,false,false,false,false,--.--,--.--,--.--,--.--,--.--,--.--,--.--,--.--,47.6173820,-122.3603897,10TET 48063 73973,1.0,1.0,0.0,3,10,--.--,--.--,,--.--,--.--,--.--,0,0,--.--,--.--,0,-1720.3,1407.6,0.2,-0.3,-0.1,-0.2,--.--,--.--,--.--,--.--,--.--,--.--,--.--,--.--,--.--,--.--,--.--,--.--,108.32,58.91,--.--,0,0,0.3,0.3,0.2,0,2,0,--.--,--.--,--.--
2022-08-15 11:57:56.138,3.7,-2.2,56,0.0,0.0,0.0,0.0,0.0,0.000,0.1,-0.4,5.9,-0.180,-0.250,0.000,0.0,00:00:04,0.2,0,--.--,--.--,--.--,47,0000:00:00,50,0,0,10,30,0,2,--.--,0,0,0,--.--,8.50,7311,--.--,53,--.--,--:--:--,0,--.--,11:57:56,8/15/2022,--.--,--.--,--.--,--.--,--.--,--.--,--.--,--.--,--.--,--.--,--.--,--.--,0,0.000,0.000,0.000,0.000,0.000,0.000,0.000,0.000,0.000,0.000,0.000,0.000,false,false,false,false,false,false,false,false,false,false,false,false,--.--,--.--,--.--,--.--,--.--,--.--,--.--,--.--,47.6173820,-122.3603820,10TET 48064 73973,1.0,1.0,0.0,3,10,--.--,--.--,,--.--,--.--,--.--,0,0,--.--,--.--,0,-1720.8,1408.5,0.2,-0.1,-0.0,-0.1,--.--,--.--,--.--,--.--,--.--,--.--,--.--,--.--,--.--,--.--,--.--,--.--,108.34,58.80,--.--,0,0,0.3,0.3,0.3,0,2,0,--.--,--.--,--.--
2022-08-15 11:57:57.142,3.2,-3.0,40,0.0,0.0,0.0,0.0,0.0,0.000,0.1,-0.3,6.1,-0.140,-0.171,0.000,0.0,00:00:05,0.9,0,--.--,--.--,--.--,44,0000:00:00,50,0,0,10,30,0,2,--.--,0,0,0,--.--,5.76,7313,--.--,53,--.--,--:--:--,0,--.--,11:57:57,8/15/2022,--.--,--.--,--.--,--.--,--.--,--.--,--.--,--.--,--.--,--.--,--.--,--.--,0,0.000,0.000,0.000,0.000,0.000,0.000,0.000,0.000,0.000,0.000,0.000,0.000,false,false,false,false,false,false,false,false,false,false,false,false,--.--,--.--,--.--,--.--,--.--,--.--,--.--,--.--,47.6173858,-122.3603744,10TET 48064 73973,1.0,1.0,0.0,3,10,--.--,--.--,,--.--,--.--,--.--,0,0,--.--,--.--,0,-1720.8,1409.4,0.0,0.1,0.2,-0.1,--.--,--.--,--.--,--.--,--.--,--.--,--.--,--.--,--.--,--.--,--.--,--.--,108.34,58.69,--.--,0,0,0.2,0.4,0.2,0,2,0,--.--,--.--,--.--
2022-08-15 11:57:58.143,-4.5,0.6,53,0.0,0.0,0.0,0.0,0.0,0.000,-0.0,-0.4,5.9,-0.180,-0.251,0.000,0.0,00:00:07,2.3,0,--.--,--.--,--.--,52,0000:00:00,50,0,0,10,30,0,2,--.--,0,0,0,--.--,5.71,7315,--.--,53,--.--,--:--:--,0,--.--,11:57:58,8/15/2022,--.--,--.--,--.--,--.--,--.--,--.--,--.--,--.--,--.--,--.--,--.--,--.--,0,0.000,0.000,0.000,0.000,0.000,0.000,0.000,0.000,0.000,0.000,0.000,0.000,false,false,false,false,false,false,false,false,false,false,false,false,--.--,--.--,--.--,--.--,--.--,--.--,--.--,--.--,47.6173820,-122.3603744,10TET 48064 73973,1.0,1.0,0.0,3,10,--.--,--.--,,--.--,--.--,--.--,0,0,--.--,--.--,0,-1720.5,1410.9,0.2,-0.1,0.3,0.1,--.--,--.--,--.--,--.--,--.--,--.--,--.--,--.--,--.--,--.--,--.--,--.--,108.36,58.55,--.--,0,0,0.3,0.3,0.2,0,2,0,--.--,--.--,--.--
2022-08-15 11:57:59.142,1.5,-0.4,64,0.0,0.0,0.0,0.0,0.0,0.000,0.2,-0.1,6.2,-0.090,-0.089,0.000,0.0,00:00:07,3.3,0,--.--,277,--.--,36,0000:00:00,50,0,0,10,30,0,2,--.--,0,0,0,--.--,7.45,7316,--.--,53,--.--,--:--:--,0,--.--,11:57:59,8/15/2022,--.--,--.--,--.--,--.--,--.--,--.--,--.--,--.--,--.--,--.--,--.--,--.--,0,0.000,0.000,0.000,0.000,0.000,0.000,0.000,0.000,0.000,0.000,0.000,0.000,false,false,false,false,false,false,false,false,false,false,false,false,--.--,--.--,--.--,--.--,--.--,--.--,--.--,--.--,47.6173858,-122.3603668,10TET 48065 73973,1.0,1.0,0.0,3,10,--.--,--.--,,--.--,--.--,--.--,0,0,--.--,--.--,0,-1721.0,1411.8,-0.1,-0.3,0.4,-0.2,--.--,--.--,--.--,--.--,--.--,--.--,--.--,--.--,--.--,--.--,--.--,--.--,108.37,58.46,--.--,0,0,0.3,0.3,0.3,0,2,0,--.--,--.--,--.--
2022-08-15 11:58:00.145,3.2,1.5,62,0.0,0.0,0.0,0.0,0.0,0.000,0.0,-0.2,6.1,-0.120,-0.134,0.000,0.0,00:00:09,4.2,0,--.--,272,--.--,43,0000:00:00,50,0,0,10,30,0,2,--.--,0,0,0,--.--,1.25,7317,--.--,53,--.--,--:--:--,0,--.--,11:58:00,8/15/2022,--.--,--.--,--.--,--.--,--.--,--.--,--.--,--.--,--.--,--.--,--.--,--.--,0,0.000,0.000,0.000,0.000,0.000,0.000,0.000,0.000,0.000,0.000,0.000,0.000,false,false,false,false,false,false,false,false,false,false,false,false,--.--,--.--,--.--,--.--,--.--,--.--,--.--,--.--,47.6173820,-122.3603668,10TET 48065 73973,1.0,1.0,0.0,3,10,--.--,--.--,,--.--,--.--,--.--,0,0,--.--,--.--,0,-1720.7,1412.7,-0.0,-0.2,-0.2,-0.0,--.--,--.--,--.--,--.--,--.--,--.--,--.--,--.--,--.--,--.--,--.--,--.--,108.37,58.35,--.--,0,0,0.1,0.1,0.1,0,2,0,--.--,--.--,--.--
2022-08-15 11:58:01.140,-2.4,4.2,64,0.0,0.0,0.0,0.0,0.0,0.000,0.0,-0.3,6.1,-0.140,-0.157,0.000,0.0,00:00:10,5.1,0,--.--,277,--.--,46,0000:00:00,50,0,0,10,30,0,2,--.--,0,0,0,--.--,6.97,7318,--.--,53,--.--,--:--:--,0,--.--,11:58:01,8/15/2022,--.--,--.--,--.--,--.--,--.--,--.--,--.--,--.--,--.--,--.--,--.--,--.--,0,0.000,0.000,0.000,0.000,0.000,0.000,0.000,0.000,0.000,0.000,0.000,0.000,false,false,false,false,false,false,false,false,false,false,false,false,--.--,--.--,--.--,--.--,--.--,--.--,--.--,--.--,47.6173820,-122.3603591,10TET 48065 73973,1.0,1.0,0.0,3,10,--.--,--.--,,--.--,--.--,--.--,0,0,--.--,--.--,0,-1721.2,1413.5,0.0,-0.5,0.3,0.0,--.--,--.--,--.--,--.--,--.--,--.--,--.--,--.--,--.--,--.--,--.--,--.--,108.39,58.24,--.--,0,0,0.5,0.5,0.5,0,2,0,--.--,--.--,--.--
2022-08-15 11:58:02.138,-0.2,4.1,54,0.0,0.0,0.0,0.0,0.0,0.000,0.2,-0.4,6.0,-0.180,-0.239,0.000,6.7,00:00:11,6.4,0,--.--,276,--.--,49,0000:00:00,50,0,0,10,30,0,2,--.--,0,0,0,--.--,5.06,7320,--.--,53,--.--,--:--:--,0,--.--,11:58:02,8/15/2022,--.--,--.--,--.--,--.--,--.--,--.--,--.--,--.--,--.--,--.--,--.--,--.--,0,0.000,0.000,0.000,0.000,0.000,0.000,0.000,0.000,0.000,0.000,0.000,0.000,false,false,false,false,false,false,false,false,false,false,false,false,--.--,--.--,--.--,--.--,--.--,--.--,--.--,--.--,47.6173820,-122.3603591,10TET 48065 73973,1.0,1.0,0.0,3,10,--.--,--.--,,--.--,--.--,--.--,0,0,--.--,--.--,0,-1721.3,1414.9,0.1,0.0,0.4,-0.2,--.--,--.--,--.--,--.--,--.--,--.--,--.--,--.--,--.--,--.--,--.--,--.--,108.41,58.17,--.--,0,0,0.2,0.2,0.3,0,2,0,--.--,--.--,--.--
2022-08-15 11:58:03.144,0.3,-0.8,51,0.0,0.0,0.0,0.0,0.0,0.000,0.1,-0.2,6.2,-0.110,-0.103,0.000,6.7,00:00:12,7.0,0,--.--,276,--.--,42,0000:00:00,50,0,0,10,30,0,2,--.--,0,0,0,--.--,1.18,7321,--.--,53,--.--,--:--:--,0,--.--,11:58:03,8/15/2022,--.--,--.--,--.--,--.--,--.--,--.--,--.--,--.--,--.--,--.--,--.--,--.--,0,0.000,0.000,0.000,0.000,0.000,0.000,0.000,0.000,0.000,0.000,0.000,0.000,false,false,false,false,false,false,false,false,false,false,false,false,--.--,--.--,--.--,--.--,--.--,--.--,--.--,--.--,47.6173820,-122.3603591,10TET 48065 73973,1.0,1.0,0.0,3,10,--.--,--.--,,--.--,--.--,--.--,0,0,--.--,--.--,0,-1721.3,1415.5,-0.1,-0.3,0.0,-0.1,--.--,--.--,--.--,--.--,--.--,--.--,--.--,--.--,--.--,--.--,--.--,--.--,108.43,58.10,--.--,0,0,0.1,0.1,0.1,0,2,0,--.--,--.--,--.--
2022-08-15 11:58:04.136,-1.3,0.9,50,0.0,0.0,0.0,0.0,0.0,0.000,0.0,-0.1,6.2,-0.090,-0.076,0.000,6.7,00:00:13,7.4,0,--.--,277,--.--,40,0000:00:00,50,0,0,10,30,0,2,--.--,0,0,0,--.--,1.55,7321,--.--,53,--.--,--:--:--,0,--.--,11:58:04,8/15/2022,--.--,--.--,--.--,--.--,--.--,--.--,--.--,--.--,--.--,--.--,--.--,--.--,0,0.000,0.000,0.000,0.000,0.000,0.000,0.000,0.000,0.000,0.000,0.000,0.000,false,false,false,false,false,false,false,false,false,false,false,false,--.--,--.--,--.--,--.--,--.--,--.--,--.--,--.--,47.6173820,-122.3603515,10TET 48066 73973,1.0,1.0,0.0,3,10,--.--,--.--,,--.--,--.--,--.--,0,0,--.--,--.--,0,-1721.4,1415.8,-0.1,-0.0,0.0,-0.0,--.--,--.--,--.--,--.--,--.--,--.--,--.--,--.--,--.--,--.--,--.--,--.--,108.45,58.03,--.--,0,0,0.1,0.1,0.1,0,2,0,--.--,--.--,--.--
2022-08-15 11:58:05.137,-0.8,3.5,52,0.0,0.0,0.0,0.0,0.0,0.000,0.1,-0.3,6.0,-0.150,-0.183,0.000,6.7,00:00:14,8.2,0,--.--,276,--.--,45,0000:00:00,50,0,0,10,30,0,2,--.--,0,0,0,--.--,4.85,7322,--.--,53,--.--,--:--:--,0,--.--,11:58:05,8/15/2022,--.--,--.--,--.--,--.--,--.--,--.--,--.--,--.--,--.--,--.--,--.--,--.--,0,0.000,0.000,0.000,0.000,0.000,0.000,0.000,0.000,0.000,0.000,0.000,0.000,false,false,false,false,false,false,false,false,false,false,false,false,--.--,--.--,--.--,--.--,--.--,--.--,--.--,--.--,47.6173820,-122.3603515,10TET 48066 73973,1.0,1.0,0.0,3,10,--.--,--.--,,--.--,--.--,--.--,0,0,--.--,--.--,0,-1721.5,1416.7,0.0,-0.1,0.1,-0.1,--.--,--.--,--.--,--.--,--.--,--.--,--.--,--.--,--.--,--.--,--.--,--.--,108.46,57.99,--.--,0,0,0.3,0.4,0.3,0,2,0,--.--,--.--,--.--
2022-08-15 11:58:06.134,2.1,-0.7,47,0.0,0.0,0.0,0.0,0.0,0.000,0.1,-0.3,6.0,-0.160,-0.194,0.000,6.7,00:00:15,9.3,0,--.--,271,--.--,48,0000:00:00,50,0,0,10,30,0,2,--.--,0,0,0,--.--,6.29,7323,--.--,53,--.--,--:--:--,0,--.--,11:58:06,8/15/2022,--.--,--.--,--.--,--.--,--.--,--.--,--.--,--.--,--.--,--.--,--.--,--.--,0,0.000,0.000,0.000,0.000,0.000,0.000,0.000,0.000,0.000,0.000,0.000,0.000,false,false,false,false,false,false,false,false,false,false,false,false,--.--,--.--,--.--,--.--,--.--,--.--,--.--,--.--,47.6173858,-122.3603515,10TET 48066 73973,1.0,1.0,0.0,3,10,--.--,--.--,,--.--,--.--,--.--,0,0,--.--,--.--,0,-1720.8,1417.9,0.1,0.4,0.8,-0.1,--.--,--.--,--.--,--.--,--.--,--.--,--.--,--.--,--.--,--.--,--.--,--.--,108.48,57.96,--.--,0,0,0.3,0.3,0.3,0,2,0,--.--,--.--,--.--
2022-08-15 11:58:07.137,-0.4,-0.0,49,0.0,0.0,0.0,0.0,0.0,0.000,-0.0,-0.4,5.9,-0.190,-0.270,0.000,6.7,00:00:16,9.5,0,--.--,269,--.--,55,0000:00:00,50,0,0,10,30,0,2,--.--,0,0,0,--.--,6.68,7325,--.--,53,--.--,--:--:--,0,--.--,11:58:07,8/15/2022,--.--,--.--,--.--,--.--,--.--,--.--,--.--,--.--,--.--,--.--,--.--,--.--,0,0.000,0.000,0.000,0.000,0.000,0.000,0.000,0.000,0.000,0.000,0.000,0.000,false,false,false,false,false,false,false,false,false,false,false,false,--.--,--.--,--.--,--.--,--.--,--.--,--.--,--.--,47.6173820,-122.3603515,10TET 48066 73973,1.0,1.0,0.0,3,10,--.--,--.--,,--.--,--.--,--.--,0,0,--.--,--.--,0,-1720.4,1418.1,0.2,0.3,0.3,0.0,--.--,--.--,--.--,--.--,--.--,--.--,--.--,--.--,--.--,--.--,--.--,--.--,108.50,57.90,--.--,0,0,0.2,0.2,0.2,0,2,0,--.--,--.--,--.--
2022-08-15 11:58:08.138,0.5,-2.9,49,0.0,0.0,0.0,0.0,0.0,0.000,0.2,-0.1,6.3,-0.080,-0.044,0.000,6.7,00:00:17,9.6,0,--.--,268,--.--,38,0000:00:00,50,0,0,10,30,0,2,--.--,0,0,0,--.--,3.18,7326,--.--,53,--.--,--:--:--,0,--.--,11:58:08,8/15/2022,--.--,--.--,--.--,--.--,--.--,--.--,--.--,--.--,--.--,--.--,--.--,--.--,0,0.000,0.000,0.000,0.000,0.000,0.000,0.000,0.000,0.000,0.000,0.000,0.000,false,false,false,false,false,false,false,false,false,false,false,false,--.--,--.--,--.--,--.--,--.--,--.--,--.--,--.--,47.6173858,-122.3603439,10TET 48067 73973,1.0,1.0,0.0,3,10,--.--,--.--,,--.--,--.--,--.--,0,0,--.--,--.--,0,-1720.3,1418.1,-0.2,0.0,-0.1,-0.1,--.--,--.--,--.--,--.--,--.--,--.--,--.--,--.--,--.--,--.--,--.--,--.--,108.54,57.88,--.--,0,0,0.2,0.2,0.2,0,2,0,--.--,--.--,--.--
2022-08-15 11:58:09.143,-0.0,-0.3,67,0.0,0.0,0.0,0.0,0.0,0.000,0.2,-0.2,6.1,-0.120,-0.124,0.000,6.7,00:00:18,9.9,0,--.--,269,--.--,41,0000:00:00,50,0,0,10,30,0,2,--.--,0,0,0,--.--,1.13,7327,--.--,53,--.--,--:--:--,0,--.--,11:58:09,8/15/2022,--.--,--.--,--.--,--.--,--.--,--.--,--.--,--.--,--.--,--.--,--.--,--.--,0,0.000,0.000,0.000,0.000,0.000,0.000,0.000,0.000,0.000,0.000,0.000,0.000,false,false,false,false,false,false,false,false,false,false,false,false,--.--,--.--,--.--,--.--,--.--,--.--,--.--,--.--,47.6173858,-122.3603439,10TET 48067 73973,1.0,1.0,0.0,3,10,--.--,--.--,,--.--,--.--,--.--,0,0,--.--,--.--,0,-1720.3,1418.5,-0.1,-0.2,-0.4,-0.2,--.--,--.--,--.--,--.--,--.--,--.--,--.--,--.--,--.--,--.--,--.--,--.--,108.55,57.85,--.--,0,0,0.1,0.1,0.1,0,2,0,--.--,--.--,--.--
2022-08-15 11:58:10.134,-2.3,6.1,71,0.0,0.0,0.0,0.0,0.0,0.000,0.0,-0.5,5.8,-0.210,-0.292,0.000,6.7,00:00:19,10.0,0,--.--,269,--.--,57,0000:00:00,50,0,0,10,30,0,2,--.--,0,0,0,--.--,1.88,7327,--.--,53,--.--,--:--:--,0,--.--,11:58:10,8/15/2022,--.--,--.--,--.--,--.--,--.--,--.--,--.--,--.--,--.--,--.--,--.--,--.--,0,0.000,0.000,0.000,0.000,0.000,0.000,0.000,0.000,0.000,0.000,0.000,0.000,false,false,false,false,false,false,false,false,false,false,false,false,--.--,--.--,--.--,--.--,--.--,--.--,--.--,--.--,47.6173858,-122.3603439,10TET 48067 73973,1.0,1.0,0.0,3,10,--.--,--.--,,--.--,--.--,--.--,0,0,--.--,--.--,0,-1720.3,1418.6,0.2,-0.3,-0.7,-0.0,--.--,--.--,--.--,--.--,--.--,--.--,--.--,--.--,--.--,--.--,--.--,--.--,108.57,57.81,--.--,0,0,0.1,0.1,0.1,0,2,0,--.--,--.--,--.--
2022-08-15 11:58:11.137,-3.3,2.3,72,0.0,0.0,0.0,0.0,0.0,0.000,0.1,-0.1,6.2,-0.090,-0.069,0.000,6.7,00:00:20,10.2,0,--.--,269,--.--,41,0000:00:00,50,0,0,10,30,0,2,--.--,0,0,0,--.--,1.81,7328,--.--,53,--.--,--:--:--,0,--.--,11:58:11,8/15/2022,--.--,--.--,--.--,--.--,--.--,--.--,--.--,--.--,--.--,--.--,--.--,--.--,0,0.000,0.000,0.000,0.000,0.000,0.000,0.000,0.000,0.000,0.000,0.000,0.000,false,false,false,false,false,false,false,false,false,false,false,false,--.--,--.--,--.--,--.--,--.--,--.--,--.--,--.--,47.6173858,-122.3603439,10TET 48067 73973,1.0,1.0,0.0,3,10,--.--,--.--,,--.--,--.--,--.--,0,0,--.--,--.--,0,-1720.4,1418.8,-0.1,-0.4,-0.5,-0.1,--.--,--.--,--.--,--.--,--.--,--.--,--.--,--.--,--.--,--.--,--.--,--.--,108.59,57.76,--.--,0,0,0.1,0.1,0.1,0,2,0,--.--,--.--,--.--
2022-08-15 11:58:12.136,0.9,-3.0,73,0.0,0.0,0.0,0.0,0.0,0.000,-0.1,-0.5,5.9,-0.190,-0.190,0.000,6.7,00:00:21,10.3,0,--.--,269,--.--,35,0000:00:00,50,0,0,10,30,0,2,--.--,0,0,0,--.--,3.28,7329,--.--,53,--.--,--:--:--,0,--.--,11:58:12,8/15/2022,--.--,--.--,--.--,--.--,--.--,--.--,--.--,--.--,--.--,--.--,--.--,--.--,0,0.000,0.000,0.000,0.000,0.000,0.000,0.000,0.000,0.000,0.000,0.000,0.000,false,false,false,false,false,false,false,false,false,false,false,false,--.--,--.--,--.--,--.--,--.--,--.--,--.--,--.--,47.6173858,-122.3603439,10TET 48067 73973,1.0,1.0,0.0,3,10,--.--,--.--,,--.--,--.--,--.--,0,0,--.--,--.--,0,-1720.5,1418.8,0.2,-0.4,-0.7,0.1,--.--,--.--,--.--,--.--,--.--,--.--,--.--,--.--,--.--,--.--,--.--,--.--,108.61,57.72,--.--,0,0,0.1,0.2,0.2,0,2,0,--.--,--.--,--.--
2022-08-15 11:58:13.135,0.5,-1.5,72,0.0,0.0,0.0,0.0,0.0,0.000,-0.2,-0.7,5.6,-0.270,-0.240,0.000,6.7,00:00:22,10.3,0,--.--,269,--.--,35,0000:00:00,46,0,0,10,30,0,2,--.--,0,0,0,--.--,3.41,7330,--.--,53,--.--,--:--:--,0,--.--,11:58:13,8/15/2022,--.--,--.--,--.--,--.--,--.--,--.--,--.--,--.--,--.--,--.--,--.--,--.--,0,0.000,0.000,0.000,0.000,0.000,0.000,0.000,0.000,0.000,0.000,0.000,0.000,false,false,false,false,false,false,false,false,false,false,false,false,--.--,--.--,--.--,--.--,--.--,--.--,--.--,--.--,47.6173858,-122.3603439,10TET 48067 73973,1.0,1.0,0.0,3,10,--.--,--.--,,--.--,--.--,--.--,0,0,--.--,--.--,0,-1720.4,1418.8,0.5,-0.3,-0.7,0.2,--.--,--.--,--.--,--.--,--.--,--.--,--.--,--.--,--.--,--.--,--.--,--.--,108.64,57.70,--.--,0,0,0.4,0.3,0.3,0,2,0,--.--,--.--,--.--
2022-08-15 11:58:14.154,0.3,-0.8,71,0.0,0.0,0.0,0.0,0.0,0.000,-0.4,-1.6,4.7,-0.540,-0.500,0.000,6.7,00:00:23,10.5,0,--.--,269,--.--,35,0000:00:00,46,0,0,10,30,0,2,--.--,0,0,0,--.--,6.68,7332,--.--,52,--.--,--:--:--,0,--.--,11:58:14,8/15/2022,--.--,--.--,--.--,--.--,--.--,--.--,--.--,--.--,--.--,--.--,--.--,--.--,0,0.000,0.000,0.000,0.000,0.000,0.000,0.000,0.000,0.000,0.000,0.000,0.000,false,false,false,false,false,false,false,false,false,false,false,false,--.--,--.--,--.--,--.--,--.--,--.--,--.--,--.--,47.6173858,-122.3603439,10TET 48067 73973,1.0,1.0,0.0,3,10,--.--,--.--,,--.--,--.--,--.--,0,0,--.--,--.--,0,-1720.4,1419.0,1.4,-0.3,-0.4,0.4,--.--,--.--,--.--,--.--,--.--,--.--,--.--,--.--,--.--,--.--,--.--,--.--,108.66,57.65,--.--,0,0,1.0,0.6,0.6,0,2,0,--.--,--.--,--.--
2022-08-15 11:58:15.150,0.2,-0.7,70,0.0,0.0,0.0,0.0,0.0,0.000,-0.5,-2.4,3.9,-0.790,-0.760,0.000,6.7,00:00:24,10.5,0,--.--,267,--.--,35,0000:00:00,46,0,0,10,30,0,2,--.--,0,0,0,--.--,3.15,7333,--.--,52,--.--,--:--:--,0,--.--,11:58:15,8/15/2022,--.--,--.--,--.--,--.--,--.--,--.--,--.--,--.--,--.--,--.--,--.--,--.--,0,0.000,0.000,0.000,0.000,0.000,0.000,0.000,0.000,0.000,0.000,0.000,0.000,false,false,false,false,false,false,false,false,false,false,false,false,--.--,--.--,--.--,--.--,--.--,--.--,--.--,--.--,47.6173896,-122.3603439,10TET 48067 73974,1.0,1.0,0.0,3,10,--.--,--.--,,--.--,--.--,--.--,0,0,--.--,--.--,0,-1720.1,1419.0,2.2,-0.2,-0.5,0.5,--.--,--.--,--.--,--.--,--.--,--.--,--.--,--.--,--.--,--.--,--.--,--.--,108.68,57.65,--.--,0,0,0.1,0.2,0.2,0,2,0,--.--,--.--,--.--
2022-08-15 11:58:16.163,0.3,3.2,74,0.0,0.0,0.0,0.0,0.0,0.000,0.0,-2.8,3.5,-0.920,-0.975,0.000,6.7,00:00:25,10.6,0,--.--,267,--.--,53,0000:00:00,46,0,0,10,30,0,2,--.--,0,0,0,--.--,3.84,7334,--.--,52,--.--,--:--:--,0,--.--,11:58:16,8/15/2022,--.--,--.--,--.--,--.--,--.--,--.--,--.--,--.--,--.--,--.--,--.--,--.--,0,0.000,0.000,0.000,0.000,0.000,0.000,0.000,0.000,0.000,0.000,0.000,0.000,false,false,false,false,false,false,false,false,false,false,false,false,--.--,--.--,--.--,--.--,--.--,--.--,--.--,--.--,47.6173858,-122.3603439,10TET 48067 73973,1.0,1.0,0.0,3,10,--.--,--.--,,--.--,--.--,--.--,0,0,--.--,--.--,0,-1720.0,1419.1,2.6,-0.2,-0.3,0.0,--.--,--.--,--.--,--.--,--.--,--.--,--.--,--.--,--.--,--.--,--.--,--.--,108.70,57.58,--.--,0,0,0.3,0.4,0.2,0,2,0,--.--,--.--,--.--
2022-08-15 11:58:17.153,-3.4,4.6,115,0.0,0.0,0.0,0.0,0.0,0.000,0.0,-3.1,3.2,-1.000,-1.009,0.000,6.7,00:00:26,10.6,0,--.--,268,--.--,57,0000:00:00,46,0,0,10,30,0,2,--.--,0,0,0,--.--,5.72,7335,--.--,52,--.--,--:--:--,0,--.--,11:58:17,8/15/2022,--.--,--.--,--.--,--.--,--.--,--.--,--.--,--.--,--.--,--.--,--.--,--.--,0,0.000,0.000,0.000,0.000,0.000,0.000,0.000,0.000,0.000,0.000,0.000,0.000,false,false,false,false,false,false,false,false,false,false,false,false,--.--,--.--,--.--,--.--,--.--,--.--,--.--,--.--,47.6173858,-122.3603439,10TET 48067 73973,1.0,1.0,0.0,3,10,--.--,--.--,,--.--,--.--,--.--,0,0,--.--,--.--,0,-1720.2,1419.1,6.5,-0.2,-0.6,0.0,--.--,--.--,--.--,--.--,--.--,--.--,--.--,--.--,--.--,--.--,--.--,--.--,108.73,57.54,--.--,0,0,0.3,0.4,0.2,0,2,0,--.--,--.--,--.--
2022-08-15 11:58:18.151,-0.6,1.4,151,0.0,0.0,0.0,0.0,0.0,0.000,-0.1,-3.3,3.0,-1.080,-1.084,0.000,6.7,00:00:27,10.0,0,--.--,267,--.--,52,0000:00:00,46,0,0,10,30,0,2,--.--,0,0,0,--.--,1.91,7336,--.--,52,--.--,--:--:--,0,--.--,11:58:18,8/15/2022,--.--,--.--,--.--,--.--,--.--,--.--,--.--,--.--,--.--,--.--,--.--,--.--,0,0.000,0.000,0.000,0.000,0.000,0.000,0.000,0.000,0.000,0.000,0.000,0.000,false,false,false,false,false,false,false,false,false,false,false,false,--.--,--.--,--.--,--.--,--.--,--.--,--.--,--.--,47.6173858,-122.3603439,10TET 48067 73973,1.0,1.0,0.0,3,10,--.--,--.--,,--.--,--.--,--.--,0,0,--.--,--.--,0,-1720.1,1418.6,6.6,0.1,-1.3,0.1,--.--,--.--,--.--,--.--,--.--,--.--,--.--,--.--,--.--,--.--,--.--,--.--,108.75,57.51,--.--,0,0,0.3,0.3,0.2,0,2,0,--.--,--.--,--.--
2022-08-15 11:58:19.153,1.6,0.9,156,0.0,0.0,0.0,0.0,0.0,0.000,0.0,-3.3,3.0,-1.080,-1.077,0.000,6.7,00:00:28,9.4,0,--.--,264,--.--,48,0000:00:00,46,0,0,10,30,0,2,--.--,0,0,0,--.--,1.10,7336,--.--,52,--.--,--:--:--,0,--.--,11:58:19,8/15/2022,--.--,--.--,--.--,--.--,--.--,--.--,--.--,--.--,--.--,--.--,--.--,--.--,0,0.000,0.000,0.000,0.000,0.000,0.000,0.000,0.000,0.000,0.000,0.000,0.000,false,false,false,false,false,false,false,false,false,false,false,false,--.--,--.--,--.--,--.--,--.--,--.--,--.--,--.--,47.6173858,-122.3603439,10TET 48067 73973,1.0,1.0,0.0,3,10,--.--,--.--,,--.--,--.--,--.--,0,0,--.--,--.--,0,-1719.6,1417.9,6.4,0.5,-1.7,-0.1,--.--,--.--,--.--,--.--,--.--,--.--,--.--,--.--,--.--,--.--,--.--,--.--,108.79,57.47,--.--,0,0,0.1,0.1,0.1,0,2,0,--.--,--.--,--.--
2022-08-15 11:58:20.155,-2.1,2.7,155,0.0,0.0,0.0,0.0,0.0,0.000,0.0,-3.4,3.0,-1.090,-1.105,0.000,6.7,00:00:29,8.8,0,--.--,261,--.--,49,0000:00:00,46,0,0,10,30,0,2,--.--,0,0,0,--.--,2.63,7337,--.--,52,--.--,--:--:--,0,--.--,11:58:20,8/15/2022,--.--,--.--,--.--,--.--,--.--,--.--,--.--,--.--,--.--,--.--,--.--,--.--,0,0.000,0.000,0.000,0.000,0.000,0.000,0.000,0.000,0.000,0.000,0.000,0.000,false,false,false,false,false,false,false,false,false,false,false,false,--.--,--.--,--.--,--.--,--.--,--.--,--.--,--.--,47.6173858,-122.3603515,10TET 48066 73973,1.0,1.0,0.0,3,10,--.--,--.--,,--.--,--.--,--.--,0,0,--.--,--.--,0,-1719.2,1417.2,6.5,0.7,-1.9,-0.0,--.--,--.--,--.--,--.--,--.--,--.--,--.--,--.--,--.--,--.--,--.--,--.--,108.81,57.43,--.--,0,0,0.7,0.5,0.6,0,2,0,--.--,--.--,--.--
2022-08-15 11:58:21.160,-4.2,1.4,119,0.0,0.0,0.0,0.0,0.0,0.000,0.0,-3.7,2.7,-1.180,-1.261,0.000,6.7,00:00:30,8.0,0,--.--,258,--.--,59,0000:00:00,46,0,0,10,30,0,2,--.--,0,0,0,--.--,3.72,7338,--.--,52,--.--,--:--:--,0,--.--,11:58:21,8/15/2022,--.--,--.--,--.--,--.--,--.--,--.--,--.--,--.--,--.--,--.--,--.--,--.--,0,0.000,0.000,0.000,0.000,0.000,0.000,0.000,0.000,0.000,0.000,0.000,0.000,false,false,false,false,false,false,false,false,false,false,false,false,--.--,--.--,--.--,--.--,--.--,--.--,--.--,--.--,47.6173858,-122.3603515,10TET 48066 73973,1.0,1.0,0.0,3,10,--.--,--.--,,--.--,--.--,--.--,0,0,--.--,--.--,0,-1718.9,1416.4,6.6,0.7,-1.8,-0.0,--.--,--.--,--.--,--.--,--.--,--.--,--.--,--.--,--.--,--.--,--.--,--.--,108.82,57.40,--.--,0,0,0.3,0.2,0.1,0,2,0,--.--,--.--,--.--
2022-08-15 11:58:22.153,-4.3,2.7,83,0.0,0.0,0.0,0.0,0.0,0.000,0.2,-3.5,2.8,-1.120,-1.118,0.000,6.7,00:00:31,7.9,0,--.--,261,--.--,55,0000:00:00,46,0,0,10,30,0,2,--.--,0,0,0,--.--,1.62,7339,--.--,52,--.--,--:--:--,0,--.--,11:58:22,8/15/2022,--.--,--.--,--.--,--.--,--.--,--.--,--.--,--.--,--.--,--.--,--.--,--.--,0,0.000,0.000,0.000,0.000,0.000,0.000,0.000,0.000,0.000,0.000,0.000,0.000,false,false,false,false,false,false,false,false,false,false,false,false,--.--,--.--,--.--,--.--,--.--,--.--,--.--,--.--,47.6173858,-122.3603439,10TET 48067 73973,1.0,1.0,0.0,3,10,--.--,--.--,,--.--,--.--,--.--,0,0,--.--,--.--,0,-1719.3,1416.3,6.3,-0.1,-1.2,-0.2,--.--,--.--,--.--,--.--,--.--,--.--,--.--,--.--,--.--,--.--,--.--,--.--,108.86,57.34,--.--,0,0,0.3,0.2,0.2,0,2,0,--.--,--.--,--.--
2022-08-15 11:58:23.151,1.9,0.3,72,0.0,0.0,0.0,0.0,0.0,0.000,0.0,-3.5,2.8,-1.140,-1.130,0.000,6.7,00:00:32,9.3,0,--.--,265,--.--,44,0000:00:00,46,0,0,10,30,0,2,--.--,0,0,0,--.--,6.62,7339,--.--,52,--.--,--:--:--,0,--.--,11:58:23,8/15/2022,--.--,--.--,--.--,--.--,--.--,--.--,--.--,--.--,--.--,--.--,--.--,--.--,0,0.000,0.000,0.000,0.000,0.000,0.000,0.000,0.000,0.000,0.000,0.000,0.000,false,false,false,false,false,false,false,false,false,false,false,false,--.--,--.--,--.--,--.--,--.--,--.--,--.--,--.--,47.6173858,-122.3603439,10TET 48067 73973,1.0,1.0,0.0,3,10,--.--,--.--,,--.--,--.--,--.--,0,0,--.--,--.--,0,-1719.8,1417.8,6.3,-0.2,0.4,-0.1,--.--,--.--,--.--,--.--,--.--,--.--,--.--,--.--,--.--,--.--,--.--,--.--,108.88,57.27,--.--,0,0,0.3,0.6,0.4,0,2,0,--.--,--.--,--.--
2022-08-15 11:58:24.150,5.2,-4.6,77,0.0,0.0,0.0,0.0,0.0,0.000,-0.2,-3.7,2.7,-1.180,-1.170,0.000,6.7,00:00:33,10.8,0,--.--,267,--.--,35,0000:00:00,46,0,0,10,30,0,2,--.--,0,0,0,--.--,1.58,7341,--.--,52,--.--,--:--:--,0,--.--,11:58:24,8/15/2022,--.--,--.--,--.--,--.--,--.--,--.--,--.--,--.--,--.--,--.--,--.--,--.--,0,0.000,0.000,0.000,0.000,0.000,0.000,0.000,0.000,0.000,0.000,0.000,0.000,false,false,false,false,false,false,false,false,false,false,false,false,--.--,--.--,--.--,--.--,--.--,--.--,--.--,--.--,47.6173858,-122.3603439,10TET 48067 73973,1.0,1.0,0.0,3,10,--.--,--.--,,--.--,--.--,--.--,0,0,--.--,--.--,0,-1720.0,1419.3,6.5,-0.4,0.9,0.2,--.--,--.--,--.--,--.--,--.--,--.--,--.--,--.--,--.--,--.--,--.--,--.--,108.90,57.25,--.--,0,0,0.3,0.3,0.2,0,2,0,--.--,--.--,--.--
2022-08-15 11:58:25.151,1.8,-5.9,78,0.0,0.0,0.0,0.0,0.0,0.000,-0.3,-4.1,2.3,-1.300,-1.280,0.000,6.7,00:00:34,11.3,0,--.--,269,--.--,35,0000:00:00,46,0,0,10,30,0,2,--.--,0,0,0,--.--,6.16,7342,--.--,52,--.--,--:--:--,0,--.--,11:58:25,8/15/2022,--.--,--.--,--.--,--.--,--.--,--.--,--.--,--.--,--.--,--.--,--.--,--.--,0,0.000,0.000,0.000,0.000,0.000,0.000,0.000,0.000,0.000,0.000,0.000,0.000,false,false,false,false,false,false,false,false,false,false,false,false,--.--,--.--,--.--,--.--,--.--,--.--,--.--,--.--,47.6173896,-122.3603439,10TET 48067 73974,1.0,1.0,0.0,3,10,--.--,--.--,,--.--,--.--,--.--,0,0,--.--,--.--,0,-1720.3,1419.8,6.7,-0.5,0.6,0.3,--.--,--.--,--.--,--.--,--.--,--.--,--.--,--.--,--.--,--.--,--.--,--.--,108.91,57.20,--.--,0,0,0.9,0.6,0.4,0,2,0,--.--,--.--,--.--
2022-08-15 11:58:26.170,0.9,-3.1,79,0.0,0.0,0.0,0.0,0.0,0.000,-0.4,-4.6,1.7,-1.470,-1.430,0.000,6.7,00:00:35,11.6,0,--.--,267,--.--,35,0000:00:00,46,0,0,10,30,0,2,--.--,0,0,0,--.--,3.38,7343,--.--,52,--.--,--:--:--,0,--.--,11:58:26,8/15/2022,--.--,--.--,--.--,--.--,--.--,--.--,--.--,--.--,--.--,--.--,--.--,--.--,0,0.000,0.000,0.000,0.000,0.000,0.000,0.000,0.000,0.000,0.000,0.000,0.000,false,false,false,false,false,false,false,false,false,false,false,false,--.--,--.--,--.--,--.--,--.--,--.--,--.--,--.--,47.6173858,-122.3603439,10TET 48067 73973,1.0,1.0,0.0,3,10,--.--,--.--,,--.--,--.--,--.--,0,0,--.--,--.--,0,-1720.1,1420.2,7.3,-0.4,0.7,0.4,--.--,--.--,--.--,--.--,--.--,--.--,--.--,--.--,--.--,--.--,--.--,--.--,108.95,57.16,--.--,0,0,0.2,0.2,0.2,0,2,0,--.--,--.--,--.--
2022-08-15 11:58:27.166,1.0,-2.1,79,0.0,0.0,0.0,0.0,0.0,0.000,-0.4,-5.3,1.0,-1.680,-1.680,0.000,6.7,00:00:36,11.9,0,--.--,268,--.--,35,0000:00:00,46,0,0,10,30,0,2,--.--,0,0,0,--.--,5.44,7345,--.--,52,--.--,--:--:--,0,--.--,11:58:27,8/15/2022,--.--,--.--,--.--,--.--,--.--,--.--,--.--,--.--,--.--,--.--,--.--,--.--,0,0.000,0.000,0.000,0.000,0.000,0.000,0.000,0.000,0.000,0.000,0.000,0.000,false,false,false,false,false,false,false,false,false,false,false,false,--.--,--.--,--.--,--.--,--.--,--.--,--.--,--.--,47.6173896,-122.3603439,10TET 48067 73974,1.0,1.0,0.0,3,10,--.--,--.--,,--.--,--.--,--.--,0,0,--.--,--.--,0,-1720.1,1420.5,8.0,-0.4,0.7,0.4,--.--,--.--,--.--,--.--,--.--,--.--,--.--,--.--,--.--,--.--,--.--,--.--,108.97,57.11,--.--,0,0,0.6,0.5,0.5,0,2,0,--.--,--.--,--.--
2022-08-15 11:58:28.166,0.9,-1.8,75,0.0,0.0,0.0,0.0,0.0,0.000,-0.4,-6.1,0.2,-1.920,-1.920,0.000,6.7,00:00:37,12.0,0,--.--,265,--.--,35,0000:00:00,46,0,0,10,30,0,2,--.--,0,0,0,--.--,2.98,7346,--.--,52,--.--,--:--:--,0,--.--,11:58:28,8/15/2022,--.--,--.--,--.--,--.--,--.--,--.--,--.--,--.--,--.--,--.--,--.--,--.--,0,0.000,0.000,0.000,0.000,0.000,0.000,0.000,0.000,0.000,0.000,0.000,0.000,false,false,false,false,false,false,false,false,false,false,false,false,--.--,--.--,--.--,--.--,--.--,--.--,--.--,--.--,47.6173896,-122.3603439,10TET 48067 73974,1.0,1.0,0.0,3,10,--.--,--.--,,--.--,--.--,--.--,0,0,--.--,--.--,0,-1719.6,1420.5,8.8,-0.2,0.5,0.5,--.--,--.--,--.--,--.--,--.--,--.--,--.--,--.--,--.--,--.--,--.--,--.--,108.99,57.06,--.--,0,0,0.2,0.2,0.2,0,2,0,--.--,--.--,--.--
2022-08-15 11:58:29.170,0.4,-1.1,76,0.0,0.0,0.0,0.0,0.0,0.000,-0.5,-6.8,-0.5,-2.150,-2.150,0.000,6.7,00:00:38,12.0,0,--.--,264,--.--,35,0000:00:00,46,0,0,10,30,0,2,--.--,0,0,0,--.--,2.98,7347,--.--,52,--.--,--:--:--,0,--.--,11:58:29,8/15/2022,--.--,--.--,--.--,--.--,--.--,--.--,--.--,--.--,--.--,--.--,--.--,--.--,0,0.000,0.000,0.000,0.000,0.000,0.000,0.000,0.000,0.000,0.000,0.000,0.000,false,false,false,false,false,false,false,false,false,false,false,false,--.--,--.--,--.--,--.--,--.--,--.--,--.--,--.--,47.6173896,-122.3603439,10TET 48067 73974,1.0,1.0,0.0,3,10,--.--,--.--,,--.--,--.--,--.--,0,0,--.--,--.--,0,-1719.3,1420.4,9.5,-0.1,0.4,0.5,--.--,--.--,--.--,--.--,--.--,--.--,--.--,--.--,--.--,--.--,--.--,--.--,109.02,57.00,--.--,0,0,0.1,0.2,0.1,0,2,0,--.--,--.--,--.--
2022-08-15 11:58:30.168,0.8,-1.3,77,0.0,0.0,0.0,0.0,0.0,0.000,-0.5,-7.6,-1.3,-2.380,-2.350,0.000,6.7,00:00:39,11.8,0,--.--,262,--.--,35,0000:00:00,46,0,0,10,30,0,2,--.--,0,0,0,--.--,3.08,7348,--.--,52,--.--,--:--:--,0,--.--,11:58:30,8/15/2022,--.--,--.--,--.--,--.--,--.--,--.--,--.--,--.--,--.--,--.--,--.--,--.--,0,0.000,0.000,0.000,0.000,0.000,0.000,0.000,0.000,0.000,0.000,0.000,0.000,false,false,false,false,false,false,false,false,false,false,false,false,--.--,--.--,--.--,--.--,--.--,--.--,--.--,--.--,47.6173896,-122.3603439,10TET 48067 73974,1.0,1.0,0.0,3,10,--.--,--.--,,--.--,--.--,--.--,0,0,--.--,--.--,0,-1718.9,1420.3,10.3,-0.1,0.2,0.5,--.--,--.--,--.--,--.--,--.--,--.--,--.--,--.--,--.--,--.--,--.--,--.--,109.04,56.95,--.--,0,0,0.1,0.3,0.1,0,2,0,--.--,--.--,--.--
2022-08-15 11:58:31.167,1.3,-1.8,77,0.0,0.0,0.0,0.0,0.0,0.000,-0.4,-8.4,-2.0,-2.610,-2.570,0.000,6.7,00:00:40,11.7,0,--.--,261,--.--,35,0000:00:00,34,0,0,10,30,0,2,--.--,0,0,0,--.--,3.08,7348,--.--,52,--.--,--:--:--,0,--.--,11:58:31,8/15/2022,--.--,--.--,--.--,--.--,--.--,--.--,--.--,--.--,--.--,--.--,--.--,--.--,0,0.000,0.000,0.000,0.000,0.000,0.000,0.000,0.000,0.000,0.000,0.000,0.000,false,false,false,false,false,false,false,false,false,false,false,false,--.--,--.--,--.--,--.--,--.--,--.--,--.--,--.--,47.6173896,-122.3603439,10TET 48067 73974,1.0,1.0,0.0,3,10,--.--,--.--,,--.--,--.--,--.--,0,0,--.--,--.--,0,-1718.7,1420.1,11.0,0.0,0.1,0.4,--.--,--.--,--.--,--.--,--.--,--.--,--.--,--.--,--.--,--.--,--.--,--.--,109.06,56.89,--.--,0,0,0.2,0.2,0.1,0,2,0,--.--,--.--,--.--
2022-08-15 11:58:32.166,1.9,-2.0,77,0.0,0.0,0.0,0.0,0.0,0.000,-0.5,-9.0,-2.7,-2.810,-2.810,0.000,6.7,00:00:41,11.3,0,--.--,260,--.--,35,0000:00:00,67,0,0,10,30,0,2,--.--,0,0,0,--.--,2.98,7349,--.--,52,--.--,--:--:--,0,--.--,11:58:32,8/15/2022,--.--,--.--,--.--,--.--,--.--,--.--,--.--,--.--,--.--,--.--,--.--,--.--,0,0.000,0.000,0.000,0.000,0.000,0.000,0.000,0.000,0.000,0.000,0.000,0.000,false,false,false,false,false,false,false,false,false,false,false,false,--.--,--.--,--.--,--.--,--.--,--.--,--.--,--.--,47.6173896,-122.3603515,10TET 48066 73974,1.0,1.0,0.0,3,10,--.--,--.--,,--.--,--.--,--.--,0,0,--.--,--.--,0,-1718.6,1419.7,11.7,0.1,-0.1,0.5,--.--,--.--,--.--,--.--,--.--,--.--,--.--,--.--,--.--,--.--,--.--,--.--,109.08,56.80,--.--,0,0,0.1,0.2,0.2,0,2,0,--.--,--.--,--.--
2022-08-15 11:58:33.166,2.2,-2.4,77,0.0,0.0,0.0,0.0,0.0,0.000,-0.4,-9.8,-3.5,-3.070,-3.050,0.000,6.7,00:00:42,10.4,0,--.--,259,--.--,35,0000:00:00,85,0,0,10,30,0,2,--.--,0,0,0,--.--,2.91,7350,--.--,52,--.--,--:--:--,0,--.--,11:58:33,8/15/2022,--.--,--.--,--.--,--.--,--.--,--.--,--.--,--.--,--.--,--.--,--.--,--.--,0,0.000,0.000,0.000,0.000,0.000,0.000,0.000,0.000,0.000,0.000,0.000,0.000,false,false,false,false,false,false,false,false,false,false,false,false,--.--,--.--,--.--,--.--,--.--,--.--,--.--,--.--,47.6173896,-122.3603515,10TET 48066 73974,1.0,1.0,0.0,3,10,--.--,--.--,,--.--,--.--,--.--,0,0,--.--,--.--,0,-1718.5,1418.7,12.5,0.0,-0.4,0.5,--.--,--.--,--.--,--.--,--.--,--.--,--.--,--.--,--.--,--.--,--.--,--.--,109.09,56.75,--.--,0,0,0.1,0.2,0.1,0,2,0,--.--,--.--,--.--
2022-08-15 11:58:34.174,2.4,-2.5,76,0.0,0.0,0.0,0.0,0.0,0.000,-0.4,-10.4,-4.1,-3.240,-3.240,0.000,6.7,00:00:43,9.8,0,--.--,258,--.--,35,0000:00:00,90,0,0,10,30,0,2,--.--,0,0,0,--.--,2.97,7351,--.--,52,--.--,--:--:--,0,--.--,11:58:34,8/15/2022,--.--,--.--,--.--,--.--,--.--,--.--,--.--,--.--,--.--,--.--,--.--,--.--,0,0.000,0.000,0.000,0.000,0.000,0.000,0.000,0.000,0.000,0.000,0.000,0.000,false,false,false,false,false,false,false,false,false,false,false,false,--.--,--.--,--.--,--.--,--.--,--.--,--.--,--.--,47.6173896,-122.3603515,10TET 48066 73974,1.0,1.0,0.0,3,10,--.--,--.--,,--.--,--.--,--.--,0,0,--.--,--.--,0,-1718.5,1418.1,13.1,0.0,-0.4,0.4,--.--,--.--,--.--,--.--,--.--,--.--,--.--,--.--,--.--,--.--,--.--,--.--,109.13,56.68,--.--,0,0,0.1,0.2,0.1,0,2,0,--.--,--.--,--.--
2022-08-15 11:58:35.169,1.2,-1.1,77,0.0,0.0,0.0,0.0,0.0,0.000,-0.4,-11.1,-4.8,-3.450,-3.430,0.000,6.7,00:00:44,9.5,0,--.--,257,--.--,35,0000:00:00,87,0,0,10,30,0,2,--.--,0,0,0,--.--,3.17,7352,--.--,52,--.--,--:--:--,0,--.--,11:58:35,8/15/2022,--.--,--.--,--.--,--.--,--.--,--.--,--.--,--.--,--.--,--.--,--.--,--.--,0,0.000,0.000,0.000,0.000,0.000,0.000,0.000,0.000,0.000,0.000,0.000,0.000,false,false,false,false,false,false,false,false,false,false,false,false,--.--,--.--,--.--,--.--,--.--,--.--,--.--,--.--,47.6173896,-122.3603515,10TET 48066 73974,1.0,1.0,0.0,3,10,--.--,--.--,,--.--,--.--,--.--,0,0,--.--,--.--,0,-1718.5,1417.9,13.8,0.0,-0.3,0.4,--.--,--.--,--.--,--.--,--.--,--.--,--.--,--.--,--.--,--.--,--.--,--.--,109.15,56.61,--.--,0,0,0.2,0.2,0.1,0,2,0,--.--,--.--,--.--
2022-08-15 11:58:36.171,1.5,-1.6,77,0.0,0.0,0.0,0.0,0.0,0.000,-0.4,-11.7,-5.4,-3.650,-3.630,0.000,6.7,00:00:45,9.4,0,--.--,257,--.--,35,0000:00:00,87,0,0,10,30,0,2,--.--,0,0,0,--.--,3.11,7353,--.--,52,--.--,--:--:--,0,--.--,11:58:36,8/15/2022,--.--,--.--,--.--,--.--,--.--,--.--,--.--,--.--,--.--,--.--,--.--,--.--,0,0.000,0.000,0.000,0.000,0.000,0.000,0.000,0.000,0.000,0.000,0.000,0.000,false,false,false,false,false,false,false,false,false,false,false,false,--.--,--.--,--.--,--.--,--.--,--.--,--.--,--.--,47.6173896,-122.3603515,10TET 48066 73974,1.0,1.0,0.0,3,10,--.--,--.--,,--.--,--.--,--.--,0,0,--.--,--.--,0,-1718.5,1417.7,14.4,-0.0,-0.3,0.4,--.--,--.--,--.--,--.--,--.--,--.--,--.--,--.--,--.--,--.--,--.--,--.--,109.17,56.55,--.--,0,0,0.2,0.2,0.1,0,2,0,--.--,--.--,--.--
2022-08-15 11:58:37.172,1.0,-1.2,78,0.0,0.0,0.0,0.0,0.0,0.000,-0.4,-12.4,-6.1,-3.830,-3.800,0.000,6.7,00:00:46,9.4,0,--.--,258,--.--,35,0000:00:00,87,0,0,10,30,0,2,--.--,0,0,0,--.--,3.14,7353,--.--,52,--.--,--:--:--,0,--.--,11:58:37,8/15/2022,--.--,--.--,--.--,--.--,--.--,--.--,--.--,--.--,--.--,--.--,--.--,--.--,0,0.000,0.000,0.000,0.000,0.000,0.000,0.000,0.000,0.000,0.000,0.000,0.000,false,false,false,false,false,false,false,false,false,false,false,false,--.--,--.--,--.--,--.--,--.--,--.--,--.--,--.--,47.6173896,-122.3603515,10TET 48066 73974,1.0,1.0,0.0,3,10,--.--,--.--,,--.--,--.--,--.--,0,0,--.--,--.--,0,-1718.6,1417.7,15.1,-0.1,-0.2,0.4,--.--,--.--,--.--,--.--,--.--,--.--,--.--,--.--,--.--,--.--,--.--,--.--,109.18,56.46,--.--,0,0,0.1,0.2,0.1,0,2,0,--.--,--.--,--.--
2022-08-15 11:58:38.168,0.7,-0.9,78,0.0,0.0,0.0,0.0,0.0,0.000,-0.4,-13.0,-6.7,-4.010,-3.990,0.000,6.7,00:00:47,9.3,0,--.--,258,--.--,35,0000:00:00,87,0,0,10,30,0,2,--.--,0,0,0,--.--,3.23,7354,--.--,52,--.--,--:--:--,0,--.--,11:58:38,8/15/2022,--.--,--.--,--.--,--.--,--.--,--.--,--.--,--.--,--.--,--.--,--.--,--.--,0,0.000,0.000,0.000,0.000,0.000,0.000,0.000,0.000,0.000,0.000,0.000,0.000,false,false,false,false,false,false,false,false,false,false,false,false,--.--,--.--,--.--,--.--,--.--,--.--,--.--,--.--,47.6173896,-122.3603515,10TET 48066 73974,1.0,1.0,0.0,3,10,--.--,--.--,,--.--,--.--,--.--,0,0,--.--,--.--,0,-1718.6,1417.7,15.7,-0.1,-0.2,0.4,--.--,--.--,--.--,--.--,--.--,--.--,--.--,--.--,--.--,--.--,--.--,--.--,109.20,56.37,--.--,0,0,0.2,0.2,0.1,0,2,0,--.--,--.--,--.--
2022-08-15 11:58:39.168,0.8,-0.8,77,0.0,0.0,0.0,0.0,0.0,0.000,-0.3,-13.6,-7.3,-4.190,-4.170,0.000,6.7,00:00:48,9.4,0,--.--,257,--.--,35,0000:00:00,87,0,0,10,30,0,2,--.--,0,0,0,--.--,3.17,7355,--.--,52,--.--,--:--:--,0,--.--,11:58:39,8/15/2022,--.--,--.--,--.--,--.--,--.--,--.--,--.--,--.--,--.--,--.--,--.--,--.--,0,0.000,0.000,0.000,0.000,0.000,0.000,0.000,0.000,0.000,0.000,0.000,0.000,false,false,false,false,false,false,false,false,false,false,false,false,--.--,--.--,--.--,--.--,--.--,--.--,--.--,--.--,47.6173934,-122.3603515,10TET 48066 73974,1.0,1.0,0.0,3,10,--.--,--.--,,--.--,--.--,--.--,0,0,--.--,--.--,0,-1718.5,1417.7,16.2,-0.0,-0.2,0.4,--.--,--.--,--.--,--.--,--.--,--.--,--.--,--.--,--.--,--.--,--.--,--.--,109.24,56.34,--.--,0,0,0.1,0.2,0.1,0,2,0,--.--,--.--,--.--
2022-08-15 11:58:40.168,0.7,-0.7,77,0.0,0.0,0.0,0.0,0.0,0.000,-0.4,-14.1,-7.8,-4.370,-4.370,0.000,6.7,00:00:49,9.2,0,--.--,254,--.--,35,0000:00:00,87,0,0,10,30,0,2,--.--,0,0,0,--.--,3.25,7356,--.--,52,--.--,--:--:--,0,--.--,11:58:40,8/15/2022,--.--,--.--,--.--,--.--,--.--,--.--,--.--,--.--,--.--,--.--,--.--,--.--,0,0.000,0.000,0.000,0.000,0.000,0.000,0.000,0.000,0.000,0.000,0.000,0.000,false,false,false,false,false,false,false,false,false,false,false,false,--.--,--.--,--.--,--.--,--.--,--.--,--.--,--.--,47.6173934,-122.3603591,10TET 48065 73974,1.0,1.0,0.0,3,10,--.--,--.--,,--.--,--.--,--.--,0,0,--.--,--.--,0,-1718.0,1417.3,16.8,0.1,-0.2,0.4,--.--,--.--,--.--,--.--,--.--,--.--,--.--,--.--,--.--,--.--,--.--,--.--,109.26,56.23,--.--,0,0,0.1,0.2,0.1,0,2,0,--.--,--.--,--.--
2022-08-15 11:58:41.168,0.3,-0.5,77,0.0,0.0,0.0,0.0,0.0,0.000,-0.3,-14.8,-8.5,-4.560,-4.560,0.000,6.7,00:00:50,8.6,0,--.--,249,--.--,35,0000:00:00,87,0,0,10,30,0,2,--.--,0,0,0,--.--,3.21,7357,--.--,52,--.--,--:--:--,0,--.--,11:58:41,8/15/2022,--.--,--.--,--.--,--.--,--.--,--.--,--.--,--.--,--.--,--.--,--.--,--.--,0,0.000,0.000,0.000,0.000,0.000,0.000,0.000,0.000,0.000,0.000,0.000,0.000,false,false,false,false,false,false,false,false,false,false,false,false,--.--,--.--,--.--,--.--,--.--,--.--,--.--,--.--,47.6173934,-122.3603591,10TET 48065 73974,1.0,1.0,0.0,3,10,--.--,--.--,,--.--,--.--,--.--,0,0,--.--,--.--,0,-1717.5,1416.6,17.5,0.1,-0.3,0.4,--.--,--.--,--.--,--.--,--.--,--.--,--.--,--.--,--.--,--.--,--.--,--.--,109.27,56.16,--.--,0,0,0.1,0.2,0.1,0,2,0,--.--,--.--,--.--
2022-08-15 11:58:42.166,-0.2,-0.0,77,0.0,0.0,0.0,0.0,0.0,0.000,-0.4,-15.4,-9.1,-4.760,-4.740,0.000,6.7,00:00:51,8.3,0,--.--,247,--.--,35,0000:00:00,87,0,0,10,30,0,2,--.--,0,0,0,--.--,3.34,7358,--.--,52,--.--,--:--:--,0,--.--,11:58:42,8/15/2022,--.--,--.--,--.--,--.--,--.--,--.--,--.--,--.--,--.--,--.--,--.--,--.--,0,0.000,0.000,0.000,0.000,0.000,0.000,0.000,0.000,0.000,0.000,0.000,0.000,false,false,false,false,false,false,false,false,false,false,false,false,--.--,--.--,--.--,--.--,--.--,--.--,--.--,--.--,47.6173934,-122.3603591,10TET 48065 73974,1.0,1.0,0.0,3,10,--.--,--.--,,--.--,--.--,--.--,0,0,--.--,--.--,0,-1717.3,1416.2,18.1,0.1,-0.3,0.4,--.--,--.--,--.--,--.--,--.--,--.--,--.--,--.--,--.--,--.--,--.--,--.--,109.29,56.12,--.--,0,0,0.2,0.2,0.1,0,2,0,--.--,--.--,--.--
2022-08-15 11:58:43.167,0.1,-0.1,77,0.0,0.0,0.0,0.0,0.0,0.000,-0.4,-16.0,-9.7,-4.960,-4.930,0.000,6.7,00:00:52,7.6,0,--.--,242,--.--,35,0000:00:00,87,0,0,10,30,0,2,--.--,0,0,0,--.--,3.27,7359,--.--,52,--.--,--:--:--,0,--.--,11:58:43,8/15/2022,--.--,--.--,--.--,--.--,--.--,--.--,--.--,--.--,--.--,--.--,--.--,--.--,0,0.000,0.000,0.000,0.000,0.000,0.000,0.000,0.000,0.000,0.000,0.000,0.000,false,false,false,false,false,false,false,false,false,false,false,false,--.--,--.--,--.--,--.--,--.--,--.--,--.--,--.--,47.6173973,-122.3603668,10TET 48065 73975,1.0,1.0,0.0,3,10,--.--,--.--,,--.--,--.--,--.--,0,0,--.--,--.--,0,-1716.9,1415.3,18.7,0.1,-0.4,0.4,--.--,--.--,--.--,--.--,--.--,--.--,--.--,--.--,--.--,--.--,--.--,--.--,109.31,56.07,--.--,0,0,0.2,0.3,0.1,0,2,0,--.--,--.--,--.--
2022-08-15 11:58:44.175,0.4,-0.6,77,0.0,0.0,0.0,0.0,0.0,0.000,-0.4,-16.7,-10.4,-5.150,-5.130,0.000,6.7,00:00:53,7.2,0,--.--,236,--.--,35,0000:00:00,87,0,0,10,30,0,2,--.--,0,0,0,--.--,3.37,7360,--.--,52,--.--,--:--:--,0,--.--,11:58:44,8/15/2022,--.--,--.--,--.--,--.--,--.--,--.--,--.--,--.--,--.--,--.--,--.--,--.--,0,0.000,0.000,0.000,0.000,0.000,0.000,0.000,0.000,0.000,0.000,0.000,0.000,false,false,false,false,false,false,false,false,false,false,false,false,--.--,--.--,--.--,--.--,--.--,--.--,--.--,--.--,47.6173934,-122.3603668,10TET 48065 73974,1.0,1.0,0.0,3,10,--.--,--.--,,--.--,--.--,--.--,0,0,--.--,--.--,0,-1716.6,1414.5,19.4,0.1,-0.4,0.4,--.--,--.--,--.--,--.--,--.--,--.--,--.--,--.--,--.--,--.--,--.--,--.--,109.33,55.98,--.--,0,0,0.2,0.2,0.2,0,2,0,--.--,--.--,--.--
2022-08-15 11:58:45.167,0.7,-0.9,77,0.0,0.0,0.0,0.0,0.0,0.000,-0.4,-17.3,-11.0,-5.340,-5.310,0.000,6.7,00:00:54,7.0,0,--.--,233,--.--,35,0000:00:00,87,0,0,10,30,0,2,--.--,0,0,0,--.--,3.45,7361,--.--,52,--.--,--:--:--,0,--.--,11:58:45,8/15/2022,--.--,--.--,--.--,--.--,--.--,--.--,--.--,--.--,--.--,--.--,--.--,--.--,0,0.000,0.000,0.000,0.000,0.000,0.000,0.000,0.000,0.000,0.000,0.000,0.000,false,false,false,false,false,false,false,false,false,false,false,false,--.--,--.--,--.--,--.--,--.--,--.--,--.--,--.--,47.6173973,-122.3603668,10TET 48065 73975,1.0,1.0,0.0,3,10,--.--,--.--,,--.--,--.--,--.--,0,0,--.--,--.--,0,-1716.4,1414.2,20.0,0.1,-0.4,0.4,--.--,--.--,--.--,--.--,--.--,--.--,--.--,--.--,--.--,--.--,--.--,--.--,109.35,55.92,--.--,0,0,0.1,0.3,0.1,0,2,0,--.--,--.--,--.--
2022-08-15 11:58:46.167,-0.5,0.7,77,0.0,0.0,0.0,0.0,0.0,0.000,-0.4,-17.9,-11.6,-5.530,-5.510,0.000,6.7,00:00:55,7.0,0,--.--,232,--.--,35,0000:00:00,87,0,0,10,30,0,2,--.--,0,0,0,--.--,3.39,7362,--.--,52,--.--,--:--:--,0,--.--,11:58:46,8/15/2022,--.--,--.--,--.--,--.--,--.--,--.--,--.--,--.--,--.--,--.--,--.--,--.--,0,0.000,0.000,0.000,0.000,0.000,0.000,0.000,0.000,0.000,0.000,0.000,0.000,false,false,false,false,false,false,false,false,false,false,false,false,--.--,--.--,--.--,--.--,--.--,--.--,--.--,--.--,47.6173934,-122.3603591,10TET 48065 73974,1.0,1.0,0.0,3,10,--.--,--.--,,--.--,--.--,--.--,0,0,--.--,--.--,0,-1716.2,1414.1,20.6,0.1,-0.3,0.4,--.--,--.--,--.--,--.--,--.--,--.--,--.--,--.--,--.--,--.--,--.--,--.--,109.36,55.89,--.--,0,0,0.2,0.2,0.1,0,2,0,--.--,--.--,--.--
2022-08-15 11:58:47.169,-0.4,0.4,78,0.0,0.0,0.0,0.0,0.0,0.000,-0.4,-18.7,-12.4,-5.750,-5.730,0.000,6.7,00:00:56,7.0,0,--.--,235,--.--,35,0000:00:00,87,0,0,10,30,0,2,--.--,0,0,0,--.--,3.32,7363,--.--,52,--.--,--:--:--,0,--.--,11:58:47,8/15/2022,--.--,--.--,--.--,--.--,--.--,--.--,--.--,--.--,--.--,--.--,--.--,--.--,0,0.000,0.000,0.000,0.000,0.000,0.000,0.000,0.000,0.000,0.000,0.000,0.000,false,false,false,false,false,false,false,false,false,false,false,false,--.--,--.--,--.--,--.--,--.--,--.--,--.--,--.--,47.6173934,-122.3603744,10TET 48064 73974,1.0,1.0,0.0,3,10,--.--,--.--,,--.--,--.--,--.--,0,0,--.--,--.--,0,-1716.6,1414.3,21.4,-0.0,-0.2,0.4,--.--,--.--,--.--,--.--,--.--,--.--,--.--,--.--,--.--,--.--,--.--,--.--,109.38,55.85,--.--,0,0,0.2,0.3,0.1,0,2,0,--.--,--.--,--.--
2022-08-15 11:58:48.166,0.5,-0.5,77,0.0,0.0,0.0,0.0,0.0,0.000,-0.4,-19.4,-13.1,-5.980,-5.960,0.000,6.7,00:00:57,6.4,0,--.--,235,--.--,35,0000:00:00,87,0,0,10,30,0,2,--.--,0,0,0,--.--,3.50,7364,--.--,52,--.--,--:--:--,0,--.--,11:58:48,8/15/2022,--.--,--.--,--.--,--.--,--.--,--.--,--.--,--.--,--.--,--.--,--.--,--.--,0,0.000,0.000,0.000,0.000,0.000,0.000,0.000,0.000,0.000,0.000,0.000,0.000,false,false,false,false,false,false,false,false,false,false,false,false,--.--,--.--,--.--,--.--,--.--,--.--,--.--,--.--,47.6173934,-122.3603668,10TET 48065 73974,1.0,1.0,0.0,3,10,--.--,--.--,,--.--,--.--,--.--,0,0,--.--,--.--,0,-1716.8,1413.8,22.1,-0.1,-0.2,0.4,--.--,--.--,--.--,--.--,--.--,--.--,--.--,--.--,--.--,--.--,--.--,--.--,109.40,55.78,--.--,0,0,0.1,0.3,0.1,0,2,0,--.--,--.--,--.--
2022-08-15 11:58:49.166,0.1,0.1,77,0.0,0.0,0.0,0.0,0.0,0.000,-0.4,-20.1,-13.8,-6.190,-6.190,0.000,6.7,00:00:58,6.4,0,--.--,236,--.--,35,0000:00:00,87,0,0,10,30,0,2,--.--,0,0,0,--.--,3.45,7365,--.--,52,--.--,--:--:--,0,--.--,11:58:49,8/15/2022,--.--,--.--,--.--,--.--,--.--,--.--,--.--,--.--,--.--,--.--,--.--,--.--,0,0.000,0.000,0.000,0.000,0.000,0.000,0.000,0.000,0.000,0.000,0.000,0.000,false,false,false,false,false,false,false,false,false,false,false,false,--.--,--.--,--.--,--.--,--.--,--.--,--.--,--.--,47.6173934,-122.3603744,10TET 48064 73974,1.0,1.0,0.0,3,10,--.--,--.--,,--.--,--.--,--.--,0,0,--.--,--.--,0,-1717.0,1413.8,22.8,-0.1,-0.2,0.4,--.--,--.--,--.--,--.--,--.--,--.--,--.--,--.--,--.--,--.--,--.--,--.--,109.42,55.74,--.--,0,0,0.1,0.2,0.1,0,2,0,--.--,--.--,--.--
2022-08-15 11:58:50.169,0.1,0.3,77,0.0,0.0,0.0,0.0,0.0,0.000,-0.4,-20.9,-14.5,-6.420,-6.390,0.000,6.7,00:00:59,6.0,0,--.--,231,--.--,35,0000:00:00,87,0,0,10,30,0,2,--.--,0,0,0,--.--,3.40,7365,--.--,52,--.--,--:--:--,0,--.--,11:58:50,8/15/2022,--.--,--.--,--.--,--.--,--.--,--.--,--.--,--.--,--.--,--.--,--.--,--.--,0,0.000,0.000,0.000,0.000,0.000,0.000,0.000,0.000,0.000,0.000,0.000,0.000,false,false,false,false,false,false,false,false,false,false,false,false,--.--,--.--,--.--,--.--,--.--,--.--,--.--,--.--,47.6173973,-122.3603744,10TET 48064 73975,1.0,1.0,0.0,3,10,--.--,--.--,,--.--,--.--,--.--,0,0,--.--,--.--,0,-1716.8,1413.1,23.5,-0.0,-0.2,0.4,--.--,--.--,--.--,--.--,--.--,--.--,--.--,--.--,--.--,--.--,--.--,--.--,109.44,55.71,--.--,0,0,0.1,0.2,0.1,0,2,0,--.--,--.--,--.--
2022-08-15 11:58:51.166,0.3,0.1,76,0.0,0.0,0.0,0.0,0.0,0.000,-0.4,-21.6,-15.2,-6.620,-6.620,0.000,6.7,00:01:00,5.9,0,--.--,224,--.--,35,0000:00:00,87,0,0,10,30,0,2,--.--,0,0,0,--.--,3.06,7366,--.--,52,--.--,--:--:--,0,--.--,11:58:51,8/15/2022,--.--,--.--,--.--,--.--,--.--,--.--,--.--,--.--,--.--,--.--,--.--,--.--,0,0.000,0.000,0.000,0.000,0.000,0.000,0.000,0.000,0.000,0.000,0.000,0.000,false,false,false,false,false,false,false,false,false,false,false,false,--.--,--.--,--.--,--.--,--.--,--.--,--.--,--.--,47.6173973,-122.3603744,10TET 48064 73975,1.0,1.0,0.0,3,10,--.--,--.--,,--.--,--.--,--.--,0,0,--.--,--.--,0,-1716.3,1412.7,24.2,0.1,-0.2,0.5,--.--,--.--,--.--,--.--,--.--,--.--,--.--,--.--,--.--,--.--,--.--,--.--,109.45,55.69,--.--,0,0,0.2,0.2,0.2,0,2,0,--.--,--.--,--.--
2022-08-15 11:58:52.167,0.0,0.5,76,0.0,0.0,0.0,0.0,0.0,0.000,-0.4,-22.3,-16.0,-6.860,-6.860,0.000,6.7,00:01:01,6.0,0,--.--,223,--.--,35,0000:00:00,87,0,0,10,30,0,2,--.--,0,0,0,--.--,3.33,7367,--.--,52,--.--,--:--:--,0,--.--,11:58:52,8/15/2022,--.--,--.--,--.--,--.--,--.--,--.--,--.--,--.--,--.--,--.--,--.--,--.--,0,0.000,0.000,0.000,0.000,0.000,0.000,0.000,0.000,0.000,0.000,0.000,0.000,false,false,false,false,false,false,false,false,false,false,false,false,--.--,--.--,--.--,--.--,--.--,--.--,--.--,--.--,47.6173934,-122.3603668,10TET 48065 73974,1.0,1.0,0.0,3,10,--.--,--.--,,--.--,--.--,--.--,0,0,--.--,--.--,0,-1716.2,1412.6,25.0,0.0,-0.2,0.5,--.--,--.--,--.--,--.--,--.--,--.--,--.--,--.--,--.--,--.--,--.--,--.--,109.47,55.62,--.--,0,0,0.1,0.1,0.1,0,2,0,--.--,--.--,--.--
2022-08-15 11:58:53.172,0.2,-0.4,77,0.0,0.0,0.0,0.0,0.0,0.000,-0.4,-23.1,-16.7,-7.090,-7.090,0.000,6.7,00:01:02,6.0,0,--.--,233,--.--,35,0000:00:00,87,0,0,10,30,0,2,--.--,0,0,0,--.--,3.49,7368,--.--,52,--.--,--:--:--,0,--.--,11:58:53,8/15/2022,--.--,--.--,--.--,--.--,--.--,--.--,--.--,--.--,--.--,--.--,--.--,--.--,0,0.000,0.000,0.000,0.000,0.000,0.000,0.000,0.000,0.000,0.000,0.000,0.000,false,false,false,false,false,false,false,false,false,false,false,false,--.--,--.--,--.--,--.--,--.--,--.--,--.--,--.--,47.6173896,-122.3603668,10TET 48065 73974,1.0,1.0,0.0,3,10,--.--,--.--,,--.--,--.--,--.--,0,0,--.--,--.--,0,-1716.9,1413.3,25.7,-0.1,-0.0,0.4,--.--,--.--,--.--,--.--,--.--,--.--,--.--,--.--,--.--,--.--,--.--,--.--,109.47,55.58,--.--,0,0,0.1,0.2,0.1,0,2,0,--.--,--.--,--.--
2022-08-15 11:58:54.171,-0.1,-0.2,76,0.0,0.0,0.0,0.0,0.0,0.000,-0.4,-23.8,-17.5,-7.300,-7.300,0.000,6.7,00:01:03,5.7,0,--.--,237,--.--,35,0000:00:00,87,0,0,10,30,0,2,--.--,0,0,0,--.--,3.35,7369,--.--,52,--.--,--:--:--,0,--.--,11:58:54,8/15/2022,--.--,--.--,--.--,--.--,--.--,--.--,--.--,--.--,--.--,--.--,--.--,--.--,0,0.000,0.000,0.000,0.000,0.000,0.000,0.000,0.000,0.000,0.000,0.000,0.000,false,false,false,false,false,false,false,false,false,false,false,false,--.--,--.--,--.--,--.--,--.--,--.--,--.--,--.--,47.6173934,-122.3603744,10TET 48064 73974,1.0,1.0,0.0,3,10,--.--,--.--,,--.--,--.--,--.--,0,0,--.--,--.--,0,-1717.4,1413.3,26.5,-0.2,-0.0,0.4,--.--,--.--,--.--,--.--,--.--,--.--,--.--,--.--,--.--,--.--,--.--,--.--,109.49,55.54,--.--,0,0,0.2,0.3,0.1,0,2,0,--.--,--.--,--.--
2022-08-15 11:58:55.167,-7.8,6.6,74,0.0,0.0,0.0,0.0,0.0,0.000,0.0,-24.2,-17.9,-7.460,-7.454,0.000,6.7,00:01:04,5.5,0,--.--,230,--.--,55,0000:00:00,87,0,0,10,30,0,2,--.--,0,0,0,--.--,2.30,7370,--.--,52,--.--,--:--:--,0,--.--,11:58:55,8/15/2022,--.--,--.--,--.--,--.--,--.--,--.--,--.--,--.--,--.--,--.--,--.--,--.--,0,0.000,0.000,0.000,0.000,0.000,0.000,0.000,0.000,0.000,0.000,0.000,0.000,false,false,false,false,false,false,false,false,false,false,false,false,--.--,--.--,--.--,--.--,--.--,--.--,--.--,--.--,47.6173973,-122.3603744,10TET 48064 73975,1.0,1.0,0.0,3,10,--.--,--.--,,--.--,--.--,--.--,0,0,--.--,--.--,0,-1717.0,1412.8,26.9,0.1,-0.2,-0.0,--.--,--.--,--.--,--.--,--.--,--.--,--.--,--.--,--.--,--.--,--.--,--.--,109.51,55.51,--.--,0,0,0.1,0.2,0.1,0,2,0,--.--,--.--,--.--
2022-08-15 11:58:56.166,-7.3,6.6,73,0.0,0.0,0.0,0.0,0.0,0.000,0.1,-24.4,-18.1,-7.510,-7.565,0.000,6.7,00:01:05,5.6,0,--.--,226,--.--,57,0000:00:00,87,0,0,10,30,0,2,--.--,0,0,0,--.--,1.58,7371,--.--,52,--.--,--:--:--,0,--.--,11:58:56,8/15/2022,--.--,--.--,--.--,--.--,--.--,--.--,--.--,--.--,--.--,--.--,--.--,--.--,0,0.000,0.000,0.000,0.000,0.000,0.000,0.000,0.000,0.000,0.000,0.000,0.000,false,false,false,false,false,false,false,false,false,false,false,false,--.--,--.--,--.--,--.--,--.--,--.--,--.--,--.--,47.6173896,-122.3603744,10TET 48064 73974,1.0,1.0,0.0,3,10,--.--,--.--,,--.--,--.--,--.--,0,0,--.--,--.--,0,-1716.6,1412.5,27.1,0.1,-0.1,-0.1,--.--,--.--,--.--,--.--,--.--,--.--,--.--,--.--,--.--,--.--,--.--,--.--,109.53,55.47,--.--,0,0,0.1,0.1,0.1,0,2,0,--.--,--.--,--.--
2022-08-15 11:58:57.170,-3.5,4.5,75,0.0,0.0,0.0,0.0,0.0,0.000,0.2,-24.3,-18.0,-7.480,-7.511,0.000,6.7,00:01:06,5.2,0,--.--,229,--.--,53,0000:00:00,87,0,0,10,30,0,2,--.--,0,0,0,--.--,1.02,7371,--.--,52,--.--,--:--:--,0,--.--,11:58:57,8/15/2022,--.--,--.--,--.--,--.--,--.--,--.--,--.--,--.--,--.--,--.--,--.--,--.--,0,0.000,0.000,0.000,0.000,0.000,0.000,0.000,0.000,0.000,0.000,0.000,0.000,false,false,false,false,false,false,false,false,false,false,false,false,--.--,--.--,--.--,--.--,--.--,--.--,--.--,--.--,47.6173934,-122.3603744,10TET 48064 73974,1.0,1.0,0.0,3,10,--.--,--.--,,--.--,--.--,--.--,0,0,--.--,--.--,0,-1717.1,1412.4,27.0,-0.0,-0.0,-0.2,--.--,--.--,--.--,--.--,--.--,--.--,--.--,--.--,--.--,--.--,--.--,--.--,109.53,55.44,--.--,0,0,0.1,0.1,0.1,0,2,0,--.--,--.--,--.--
2022-08-15 11:58:58.167,0.8,2.1,76,0.0,0.0,0.0,0.0,0.0,0.000,0.0,-24.3,-18.0,-7.480,-7.470,0.000,6.7,00:01:07,4.5,0,--.--,225,--.--,41,0000:00:00,87,0,0,10,30,0,2,--.--,0,0,0,--.--,1.83,7371,--.--,52,--.--,--:--:--,0,--.--,11:58:58,8/15/2022,--.--,--.--,--.--,--.--,--.--,--.--,--.--,--.--,--.--,--.--,--.--,--.--,0,0.000,0.000,0.000,0.000,0.000,0.000,0.000,0.000,0.000,0.000,0.000,0.000,false,false,false,false,false,false,false,false,false,false,false,false,--.--,--.--,--.--,--.--,--.--,--.--,--.--,--.--,47.6173858,-122.3603820,10TET 48064 73973,1.0,1.0,0.0,3,10,--.--,--.--,,--.--,--.--,--.--,0,0,--.--,--.--,0,-1717.4,1411.7,27.0,-0.0,-0.1,-0.0,--.--,--.--,--.--,--.--,--.--,--.--,--.--,--.--,--.--,--.--,--.--,--.--,109.54,55.40,--.--,0,0,0.2,0.3,0.2,0,2,0,--.--,--.--,--.--
2022-08-15 11:58:59.166,0.9,-2.0,76,0.0,0.0,0.0,0.0,0.0,0.000,-0.1,-24.5,-18.2,-7.540,-7.540,0.000,6.7,00:01:08,3.4,0,--.--,227,--.--,39,0000:00:00,87,0,0,10,30,0,2,--.--,0,0,0,--.--,1.95,7372,--.--,52,--.--,--:--:--,0,--.--,11:58:59,8/15/2022,--.--,--.--,--.--,--.--,--.--,--.--,--.--,--.--,--.--,--.--,--.--,--.--,0,0.000,0.000,0.000,0.000,0.000,0.000,0.000,0.000,0.000,0.000,0.000,0.000,false,false,false,false,false,false,false,false,false,false,false,false,--.--,--.--,--.--,--.--,--.--,--.--,--.--,--.--,47.6173896,-122.3603744,10TET 48064 73974,1.0,1.0,0.0,3,10,--.--,--.--,,--.--,--.--,--.--,0,0,--.--,--.--,0,-1718.2,1411.1,27.2,-0.2,-0.3,0.1,--.--,--.--,--.--,--.--,--.--,--.--,--.--,--.--,--.--,--.--,--.--,--.--,109.56,55.38,--.--,0,0,0.3,0.3,0.3,0,2,0,--.--,--.--,--.--
2022-08-15 11:59:00.168,-0.7,0.1,76,0.0,0.0,0.0,0.0,0.0,0.000,-0.2,-24.9,-18.5,-7.640,-7.640,0.000,6.7,00:01:09,3.6,0,--.--,233,--.--,42,0000:00:00,87,0,0,10,20,0,2,--.--,0,0,0,--.--,3.78,7373,--.--,52,--.--,--:--:--,0,--.--,11:59:00,8/15/2022,--.--,--.--,--.--,--.--,--.--,--.--,--.--,--.--,--.--,--.--,--.--,--.--,0,0.000,0.000,0.000,0.000,0.000,0.000,0.000,0.000,0.000,0.000,0.000,0.000,false,false,false,false,false,false,false,false,false,false,false,false,--.--,--.--,--.--,--.--,--.--,--.--,--.--,--.--,47.6173896,-122.3603744,10TET 48064 73974,1.0,1.0,0.0,3,10,--.--,--.--,,--.--,--.--,--.--,0,0,--.--,--.--,0,-1718.5,1411.4,27.5,-0.2,-0.2,0.2,--.--,--.--,--.--,--.--,--.--,--.--,--.--,--.--,--.--,--.--,--.--,--.--,109.58,55.38,--.--,0,0,0.5,0.4,0.5,0,2,0,--.--,--.--,--.--
2022-08-15 11:59:01.167,1.8,-1.8,76,0.0,0.0,0.0,0.0,0.0,0.000,-0.0,-25.2,-18.9,-7.750,-7.773,0.000,6.7,00:01:10,3.6,0,--.--,242,--.--,54,0000:00:00,87,0,0,10,20,0,2,--.--,0,0,0,--.--,1.90,7373,--.--,52,--.--,--:--:--,0,--.--,11:59:01,8/15/2022,--.--,--.--,--.--,--.--,--.--,--.--,--.--,--.--,--.--,--.--,--.--,--.--,0,0.000,0.000,0.000,0.000,0.000,0.000,0.000,0.000,0.000,0.000,0.000,0.000,false,false,false,false,false,false,false,false,false,false,false,false,--.--,--.--,--.--,--.--,--.--,--.--,--.--,--.--,47.6173896,-122.3603744,10TET 48064 73974,1.0,1.0,0.0,3,10,--.--,--.--,,--.--,--.--,--.--,0,0,--.--,--.--,0,-1718.8,1411.7,27.9,-0.1,-0.1,0.0,--.--,--.--,--.--,--.--,--.--,--.--,--.--,--.--,--.--,--.--,--.--,--.--,109.58,55.36,--.--,0,0,0.1,0.2,0.2,0,2,0,--.--,--.--,--.--
2022-08-15 11:59:02.166,0.4,2.5,74,0.0,0.0,0.0,0.0,0.0,0.000,0.1,-25.2,-18.9,-7.750,-7.745,0.000,6.7,00:01:11,3.9,0,--.--,243,--.--,50,0000:00:00,87,0,0,10,20,0,2,--.--,0,0,0,--.--,0.90,7374,--.--,52,--.--,--:--:--,0,--.--,11:59:02,8/15/2022,--.--,--.--,--.--,--.--,--.--,--.--,--.--,--.--,--.--,--.--,--.--,--.--,0,0.000,0.000,0.000,0.000,0.000,0.000,0.000,0.000,0.000,0.000,0.000,0.000,false,false,false,false,false,false,false,false,false,false,false,false,--.--,--.--,--.--,--.--,--.--,--.--,--.--,--.--,47.6173896,-122.3603744,10TET 48064 73974,1.0,1.0,0.0,3,10,--.--,--.--,,--.--,--.--,--.--,0,0,--.--,--.--,0,-1718.8,1412.0,27.9,-0.1,0.0,-0.1,--.--,--.--,--.--,--.--,--.--,--.--,--.--,--.--,--.--,--.--,--.--,--.--,109.60,55.33,--.--,0,0,0.1,0.1,0.0,0,2,0,--.--,--.--,--.--
2022-08-15 11:59:03.168,1.5,2.1,73,0.0,0.0,0.0,0.0,0.0,0.000,0.1,-25.2,-18.8,-7.730,-7.705,0.000,6.7,00:01:12,3.6,0,--.--,240,--.--,48,0000:00:00,87,0,0,10,20,0,2,--.--,0,0,0,--.--,0.91,7374,--.--,52,--.--,--:--:--,0,--.--,11:59:03,8/15/2022,--.--,--.--,--.--,--.--,--.--,--.--,--.--,--.--,--.--,--.--,--.--,--.--,0,0.000,0.000,0.000,0.000,0.000,0.000,0.000,0.000,0.000,0.000,0.000,0.000,false,false,false,false,false,false,false,false,false,false,false,false,--.--,--.--,--.--,--.--,--.--,--.--,--.--,--.--,47.6173858,-122.3603820,10TET 48064 73973,1.0,1.0,0.0,3,10,--.--,--.--,,--.--,--.--,--.--,0,0,--.--,--.--,0,-1718.8,1411.6,27.8,-0.0,-0.0,-0.1,--.--,--.--,--.--,--.--,--.--,--.--,--.--,--.--,--.--,--.--,--.--,--.--,109.62,55.33,--.--,0,0,0.0,0.0,0.0,0,2,0,--.--,--.--,--.--
