Timestamp,roll,pitch,heading,rollRate,pitchRate,yawRate,groundSpeed,airSpeed,airSpeedSetpoint,climbRate,altitudeRelative,altitudeAMSL,altitudeTuning,altitudeTuningSetpoint,xTrackError,flightDistance,flightTime,distanceToHome,missionItemIndex,headingToNextWP,headingToHome,distanceToGCS,throttlePct,hobbs,apmSubInfo.cameraTilt,apmSubInfo.tetherTurns,apmSubInfo.lights1,apmSubInfo.lights2,apmSubInfo.pilotGain,apmSubInfo.inputHold,apmSubInfo.rollPitchToggle,apmSubInfo.rangefinderDistance,battery0.id,battery0.batteryFunction,battery0.batteryType,battery0.voltage,battery0.current,battery0.mahConsumed,battery0.temperature,battery0.percentRemaining,battery0.timeRemaining,battery0.timeRemainingStr,battery0.chargeState,battery0.instantPower,clock.currentTime,clock.currentDate,distanceSensor.rotationNone,distanceSensor.rotationYaw45,distanceSensor.rotationYaw90,distanceSensor.rotationYaw135,distanceSensor.rotationYaw180,distanceSensor.rotationYaw225,distanceSensor.rotationYaw270,distanceSensor.rotationYaw315,distanceSensor.rotationPitch90,distanceSensor.rotationPitch270,distanceSensor.minDistance,distanceSensor.maxDistance,escStatus.index,escStatus.rpm1,escStatus.rpm2,escStatus.rpm3,escStatus.rpm4,escStatus.current1,escStatus.current2,escStatus.current3,escStatus.current4,escStatus.voltage1,escStatus.voltage2,escStatus.voltage3,escStatus.voltage4,estimatorStatus.goodAttitudeEsimate,estimatorStatus.goodHorizVelEstimate,estimatorStatus.goodVertVelEstimate,estimatorStatus.goodHorizPosRelEstimate,estimatorStatus.goodHorizPosAbsEstimate,estimatorStatus.goodVertPosAbsEstimate,estimatorStatus.goodVertPosAGLEstimate,estimatorStatus.goodConstPosModeEstimate,estimatorStatus.goodPredHorizPosRelEstimate,estimatorStatus.goodPredHorizPosAbsEstimate,estimatorStatus.gpsGlitch,estimatorStatus.accelError,estimatorStatus.velRatio,estimatorStatus.horizPosRatio,estimatorStatus.vertPosRatio,estimatorStatus.magRatio,estimatorStatus.haglRatio,estimatorStatus.tasRatio,estimatorStatus.horizPosAccuracy,estimatorStatus.vertPosAccuracy,gps.lat,gps.lon,gps.mgrs,gps.hdop,gps.vdop,gps.courseOverGround,gps.lock,gps.count,gps2.lat,gps2.lon,gps2.mgrs,gps2.hdop,gps2.vdop,gps2.courseOverGround,gps2.lock,gps2.count,hygrometer.temperature,hygrometer.humidity,hygrometer.hygrometerid,localPosition.x,localPosition.y,localPosition.z,localPosition.vx,localPosition.vy,localPosition.vz,localPositionSetpoint.x,localPositionSetpoint.y,localPositionSetpoint.z,localPositionSetpoint.vx,localPositionSetpoint.vy,localPositionSetpoint.vz,setpoint.roll,setpoint.pitch,setpoint.yaw,setpoint.rollRate,setpoint.pitchRate,setpoint.yawRate,temperature.temperature1,temperature.temperature2,temperature.temperature3,terrain.blocksPending,terrain.blocksLoaded,vibration.xAxis,vibration.yAxis,vibration.zAxis,vibration.clipCount1,vibration.clipCount2,vibration.clipCount3,wind.direction,wind.speed,wind.verticalSpeed
2022-08-15 09:56:00.823,4.2,4.5,19,0.0,0.0,0.0,0.0,0.0,0.000,-0.3,-0.1,2.2,-0.140,-0.172,0.000,0.0,00:00:00,0.0,0,--.--,--.--,--.--,50,0000:00:00,50,1,0,0,40,0,2,--.--,0,0,0,--.--,0.51,359,--.--,97,--.--,--:--:--,0,--.--,09:55:59,8/15/2022,--.--,--.--,--.--,--.--,--.--,--.--,--.--,--.--,--.--,--.--,--.--,--.--,0,0.000,0.000,0.000,0.000,0.000,0.000,0.000,0.000,0.000,0.000,0.000,0.000,false,false,false,false,false,false,false,false,false,false,false,false,--.--,--.--,--.--,--.--,--.--,--.--,--.--,--.--,47.6197509,-122.3631820,10TET 47851 74234,1.0,1.0,0.0,3,10,--.--,--.--,,--.--,--.--,--.--,0,0,--.--,--.--,0,9.2,34.2,0.2,0.3,0.1,0.3,--.--,--.--,--.--,--.--,--.--,--.--,--.--,--.--,--.--,--.--,--.--,--.--,102.78,57.42,--.--,0,0,0.0,0.0,0.0,0,0,0,--.--,--.--,--.--
2022-08-15 09:56:01.821,5.1,4.6,18,0.0,0.0,0.0,0.0,0.0,0.000,0.1,-0.1,2.2,-0.140,-0.157,0.000,0.0,00:00:01,0.2,0,--.--,--.--,--.--,50,0000:00:00,50,1,0,0,40,0,2,--.--,0,0,0,--.--,0.51,359,--.--,97,--.--,--:--:--,0,--.--,09:56:00,8/15/2022,--.--,--.--,--.--,--.--,--.--,--.--,--.--,--.--,--.--,--.--,--.--,--.--,0,0.000,0.000,0.000,0.000,0.000,0.000,0.000,0.000,0.000,0.000,0.000,0.000,false,false,false,false,false,false,false,false,false,false,false,false,--.--,--.--,--.--,--.--,--.--,--.--,--.--,--.--,47.6197509,-122.3631820,10TET 47851 74234,1.0,1.0,0.0,3,10,--.--,--.--,,--.--,--.--,--.--,0,0,--.--,--.--,0,9.2,34.0,0.2,0.3,-0.1,-0.1,--.--,--.--,--.--,--.--,--.--,--.--,--.--,--.--,--.--,--.--,--.--,--.--,102.78,57.42,--.--,0,0,0.0,0.1,0.0,0,0,0,--.--,--.--,--.--
2022-08-15 09:56:02.819,5.5,3.6,18,0.0,0.0,0.0,0.0,0.0,0.000,0.1,0.3,2.6,-0.020,0.084,0.000,0.0,00:00:01,0.2,0,--.--,--.--,--.--,50,0000:00:00,50,1,0,0,40,0,2,--.--,0,0,0,--.--,0.49,359,--.--,97,--.--,--:--:--,0,--.--,09:56:01,8/15/2022,--.--,--.--,--.--,--.--,--.--,--.--,--.--,--.--,--.--,--.--,--.--,--.--,0,0.000,0.000,0.000,0.000,0.000,0.000,0.000,0.000,0.000,0.000,0.000,0.000,false,false,false,false,false,false,false,false,false,false,false,false,--.--,--.--,--.--,--.--,--.--,--.--,--.--,--.--,47.6197509,-122.3631820,10TET 47851 74234,1.0,1.0,0.0,3,10,--.--,--.--,,--.--,--.--,--.--,0,0,--.--,--.--,0,9.3,34.0,-0.2,0.3,0.0,-0.0,--.--,--.--,--.--,--.--,--.--,--.--,--.--,--.--,--.--,--.--,--.--,--.--,102.78,57.42,--.--,0,0,0.1,0.1,0.1,0,0,0,--.--,--.--,--.--
2022-08-15 09:56:03.821,5.0,4.7,17,0.0,0.0,0.0,0.0,0.0,0.000,-0.0,0.1,2.3,-0.100,-0.074,0.000,0.0,00:00:02,0.3,0,--.--,--.--,--.--,50,0000:00:00,50,1,0,0,40,0,2,--.--,0,0,0,--.--,0.28,360,--.--,97,--.--,--:--:--,0,--.--,09:56:02,8/15/2022,--.--,--.--,--.--,--.--,--.--,--.--,--.--,--.--,--.--,--.--,--.--,--.--,0,0.000,0.000,0.000,0.000,0.000,0.000,0.000,0.000,0.000,0.000,0.000,0.000,false,false,false,false,false,false,false,false,false,false,false,false,--.--,--.--,--.--,--.--,--.--,--.--,--.--,--.--,47.6197509,-122.3631820,10TET 47851 74234,1.0,1.0,0.0,3,10,--.--,--.--,,--.--,--.--,--.--,0,0,--.--,--.--,0,9.1,34.1,0.0,0.1,0.0,0.1,--.--,--.--,--.--,--.--,--.--,--.--,--.--,--.--,--.--,--.--,--.--,--.--,102.79,57.42,--.--,0,0,0.1,0.1,0.1,0,0,0,--.--,--.--,--.--
2022-08-15 09:56:04.823,0.7,-4.0,39,0.0,0.0,0.0,0.0,0.0,0.000,1.7,1.0,3.2,0.190,0.383,0.000,0.0,00:00:03,0.4,0,--.--,--.--,--.--,50,0000:00:00,50,1,0,0,40,0,2,--.--,0,0,0,--.--,0.56,360,--.--,97,--.--,--:--:--,0,--.--,09:56:03,8/15/2022,--.--,--.--,--.--,--.--,--.--,--.--,--.--,--.--,--.--,--.--,--.--,--.--,0,0.000,0.000,0.000,0.000,0.000,0.000,0.000,0.000,0.000,0.000,0.000,0.000,false,false,false,false,false,false,false,false,false,false,false,false,--.--,--.--,--.--,--.--,--.--,--.--,--.--,--.--,47.6197509,-122.3631820,10TET 47851 74234,1.0,1.0,0.0,3,10,--.--,--.--,,--.--,--.--,--.--,0,0,--.--,--.--,0,9.3,33.8,-0.9,0.4,0.6,-1.6,--.--,--.--,--.--,--.--,--.--,--.--,--.--,--.--,--.--,--.--,--.--,--.--,102.79,57.42,--.--,0,0,0.3,0.3,0.3,0,0,0,--.--,--.--,--.--
2022-08-15 09:56:05.823,-17.6,11.8,52,0.0,0.0,0.0,0.0,0.0,0.000,-0.9,1.1,3.4,0.170,0.634,0.000,0.0,00:00:04,0.2,0,--.--,--.--,--.--,50,0000:00:00,50,1,0,0,40,0,2,--.--,0,0,0,--.--,0.50,360,--.--,97,--.--,--:--:--,0,--.--,09:56:04,8/15/2022,--.--,--.--,--.--,--.--,--.--,--.--,--.--,--.--,--.--,--.--,--.--,--.--,0,0.000,0.000,0.000,0.000,0.000,0.000,0.000,0.000,0.000,0.000,0.000,0.000,false,false,false,false,false,false,false,false,false,false,false,false,--.--,--.--,--.--,--.--,--.--,--.--,--.--,--.--,47.6197509,-122.3631820,10TET 47851 74234,1.0,1.0,0.0,3,10,--.--,--.--,,--.--,--.--,--.--,0,0,--.--,--.--,0,9.4,34.1,-1.1,0.3,-0.3,0.7,--.--,--.--,--.--,--.--,--.--,--.--,--.--,--.--,--.--,--.--,--.--,--.--,102.79,57.43,--.--,0,0,0.8,1.7,2.7,0,0,0,--.--,--.--,--.--
2022-08-15 09:56:06.838,-29.0,29.7,39,0.0,0.0,0.0,0.0,0.0,0.000,-0.8,-0.6,1.6,-0.310,-0.477,0.000,0.0,00:00:05,0.3,0,--.--,--.--,--.--,50,0000:00:00,50,1,0,0,40,0,2,--.--,0,0,0,--.--,0.53,360,--.--,97,--.--,--:--:--,0,--.--,09:56:05,8/15/2022,--.--,--.--,--.--,--.--,--.--,--.--,--.--,--.--,--.--,--.--,--.--,--.--,0,0.000,0.000,0.000,0.000,0.000,0.000,0.000,0.000,0.000,0.000,0.000,0.000,false,false,false,false,false,false,false,false,false,false,false,false,--.--,--.--,--.--,--.--,--.--,--.--,--.--,--.--,47.6197509,-122.3631820,10TET 47851 74234,1.0,1.0,0.0,3,10,--.--,--.--,,--.--,--.--,--.--,0,0,--.--,--.--,0,9.5,34.0,2.6,0.6,0.5,0.8,--.--,--.--,--.--,--.--,--.--,--.--,--.--,--.--,--.--,--.--,--.--,--.--,102.81,57.45,--.--,0,0,0.2,0.2,0.2,0,0,0,--.--,--.--,--.--
2022-08-15 09:56:07.835,-17.8,21.4,26,0.0,0.0,0.0,0.0,0.0,0.000,-2.1,-1.5,0.7,-0.580,-1.088,0.000,0.0,00:00:06,0.2,0,--.--,--.--,--.--,50,0000:00:00,50,1,0,0,40,0,2,--.--,0,0,0,--.--,0.52,360,--.--,97,--.--,--:--:--,0,--.--,09:56:06,8/15/2022,--.--,--.--,--.--,--.--,--.--,--.--,--.--,--.--,--.--,--.--,--.--,--.--,0,0.000,0.000,0.000,0.000,0.000,0.000,0.000,0.000,0.000,0.000,0.000,0.000,false,false,false,false,false,false,false,false,false,false,false,false,--.--,--.--,--.--,--.--,--.--,--.--,--.--,--.--,47.6197509,-122.3631820,10TET 47851 74234,1.0,1.0,0.0,3,10,--.--,--.--,,--.--,--.--,--.--,0,0,--.--,--.--,0,9.2,34.3,3.6,-0.1,0.3,2.2,--.--,--.--,--.--,--.--,--.--,--.--,--.--,--.--,--.--,--.--,--.--,--.--,102.81,57.43,--.--,0,0,0.3,0.2,0.5,0,0,0,--.--,--.--,--.--
2022-08-15 09:56:08.859,7.5,7.1,25,0.0,0.0,0.0,0.0,0.0,0.000,-0.1,-0.8,1.5,-0.350,-0.696,0.000,0.0,00:00:07,1.0,0,--.--,--.--,--.--,50,0000:00:00,50,1,0,0,40,0,2,--.--,0,0,0,--.--,0.60,360,--.--,97,--.--,--:--:--,0,--.--,09:56:07,8/15/2022,--.--,--.--,--.--,--.--,--.--,--.--,--.--,--.--,--.--,--.--,--.--,--.--,0,0.000,0.000,0.000,0.000,0.000,0.000,0.000,0.000,0.000,0.000,0.000,0.000,false,false,false,false,false,false,false,false,false,false,false,false,--.--,--.--,--.--,--.--,--.--,--.--,--.--,--.--,47.6197509,-122.3631820,10TET 47851 74234,1.0,1.0,0.0,3,10,--.--,--.--,,--.--,--.--,--.--,0,0,--.--,--.--,0,8.4,33.7,2.7,-0.6,-0.4,0.1,--.--,--.--,--.--,--.--,--.--,--.--,--.--,--.--,--.--,--.--,--.--,--.--,102.83,57.43,--.--,0,0,1.1,1.1,1.1,0,0,0,--.--,--.--,--.--
2022-08-15 09:56:09.850,4.1,0.2,24,0.0,0.0,0.0,0.0,0.0,0.000,1.4,1.4,3.7,0.320,0.719,0.000,0.0,00:00:08,0.8,0,--.--,--.--,--.--,50,0000:00:00,50,1,0,0,40,0,2,--.--,0,0,0,--.--,0.54,360,--.--,97,--.--,--:--:--,0,--.--,09:56:08,8/15/2022,--.--,--.--,--.--,--.--,--.--,--.--,--.--,--.--,--.--,--.--,--.--,--.--,0,0.000,0.000,0.000,0.000,0.000,0.000,0.000,0.000,0.000,0.000,0.000,0.000,false,false,false,false,false,false,false,false,false,false,false,false,--.--,--.--,--.--,--.--,--.--,--.--,--.--,--.--,47.6197509,-122.3631820,10TET 47851 74234,1.0,1.0,0.0,3,10,--.--,--.--,,--.--,--.--,--.--,0,0,--.--,--.--,0,8.8,33.6,0.6,0.3,-0.2,-1.5,--.--,--.--,--.--,--.--,--.--,--.--,--.--,--.--,--.--,--.--,--.--,--.--,102.85,57.43,--.--,0,0,0.2,0.4,0.3,0,0,0,--.--,--.--,--.--
2022-08-15 09:56:10.853,4.2,0.8,19,0.0,0.0,0.0,0.0,0.0,0.000,0.4,0.7,3.0,0.090,0.385,0.000,0.0,00:00:09,2.2,0,--.--,--.--,--.--,50,0000:00:00,50,1,0,0,40,0,2,--.--,0,0,0,--.--,0.52,361,--.--,97,--.--,--:--:--,0,--.--,09:56:09,8/15/2022,--.--,--.--,--.--,--.--,--.--,--.--,--.--,--.--,--.--,--.--,--.--,--.--,0,0.000,0.000,0.000,0.000,0.000,0.000,0.000,0.000,0.000,0.000,0.000,0.000,false,false,false,false,false,false,false,false,false,false,false,false,--.--,--.--,--.--,--.--,--.--,--.--,--.--,--.--,47.6197090,-122.3631515,10TET 47854 74230,1.0,1.0,0.0,3,10,--.--,--.--,,--.--,--.--,--.--,0,0,--.--,--.--,0,7.2,34.7,1.5,-0.1,-0.0,-0.5,--.--,--.--,--.--,--.--,--.--,--.--,--.--,--.--,--.--,--.--,--.--,--.--,102.87,57.42,--.--,0,0,0.2,0.2,0.1,0,0,0,--.--,--.--,--.--
2022-08-15 09:56:11.874,2.7,3.0,21,0.0,0.0,0.0,0.0,0.0,0.000,0.2,0.0,2.3,-0.110,-0.192,0.000,6.9,00:00:11,8.5,0,--.--,335,--.--,57,0000:00:00,50,1,0,0,40,0,2,--.--,0,0,0,--.--,11.68,362,--.--,97,--.--,--:--:--,0,--.--,09:56:10,8/15/2022,--.--,--.--,--.--,--.--,--.--,--.--,--.--,--.--,--.--,--.--,--.--,--.--,0,0.000,0.000,0.000,0.000,0.000,0.000,0.000,0.000,0.000,0.000,0.000,0.000,false,false,false,false,false,false,false,false,false,false,false,false,--.--,--.--,--.--,--.--,--.--,--.--,--.--,--.--,47.6197090,-122.3631515,10TET 47854 74230,1.0,1.0,0.0,3,10,--.--,--.--,,--.--,--.--,--.--,0,0,--.--,--.--,0,1.5,37.8,2.2,-0.3,0.9,-0.2,--.--,--.--,--.--,--.--,--.--,--.--,--.--,--.--,--.--,--.--,--.--,--.--,102.87,57.38,--.--,0,0,0.8,1.2,0.7,0,0,0,--.--,--.--,--.--
2022-08-15 09:56:12.865,1.0,-3.5,18,0.0,0.0,0.0,0.0,0.0,0.000,-0.0,-0.3,2.0,-0.200,-0.268,0.000,6.9,00:00:12,13.2,0,--.--,333,--.--,60,0000:00:00,50,1,0,0,40,0,2,--.--,0,0,0,--.--,2.60,365,--.--,97,--.--,--:--:--,0,--.--,09:56:11,8/15/2022,--.--,--.--,--.--,--.--,--.--,--.--,--.--,--.--,--.--,--.--,--.--,--.--,0,0.000,0.000,0.000,0.000,0.000,0.000,0.000,0.000,0.000,0.000,0.000,0.000,false,false,false,false,false,false,false,false,false,false,false,false,--.--,--.--,--.--,--.--,--.--,--.--,--.--,--.--,47.6197013,-122.3631515,10TET 47854 74229,1.0,1.0,0.0,3,10,--.--,--.--,,--.--,--.--,--.--,0,0,--.--,--.--,0,-2.6,40.1,2.5,-0.7,1.0,0.1,--.--,--.--,--.--,--.--,--.--,--.--,--.--,--.--,--.--,--.--,--.--,--.--,102.88,57.36,--.--,0,0,0.5,0.5,0.5,0,0,0,--.--,--.--,--.--
2022-08-15 09:56:13.867,2.9,-5.7,18,0.0,0.0,0.0,0.0,0.0,0.000,-0.2,-0.3,1.9,-0.220,-0.242,0.000,13.9,00:00:13,16.8,0,--.--,335,--.--,57,0000:00:00,50,1,0,0,40,0,2,--.--,0,0,0,--.--,13.32,367,--.--,97,--.--,--:--:--,0,--.--,09:56:12,8/15/2022,--.--,--.--,--.--,--.--,--.--,--.--,--.--,--.--,--.--,--.--,--.--,--.--,0,0.000,0.000,0.000,0.000,0.000,0.000,0.000,0.000,0.000,0.000,0.000,0.000,false,false,false,false,false,false,false,false,false,false,false,false,--.--,--.--,--.--,--.--,--.--,--.--,--.--,--.--,47.6197013,-122.3631515,10TET 47854 74229,1.0,1.0,0.0,3,10,--.--,--.--,,--.--,--.--,--.--,0,0,--.--,--.--,0,-6.0,41.3,2.6,-0.6,0.9,0.2,--.--,--.--,--.--,--.--,--.--,--.--,--.--,--.--,--.--,--.--,--.--,--.--,102.90,57.31,--.--,0,0,0.4,0.6,0.4,0,0,0,--.--,--.--,--.--
2022-08-15 09:56:14.880,-0.5,0.9,18,0.0,0.0,0.0,0.0,0.0,0.000,0.1,-0.2,2.1,-0.180,-0.143,0.000,13.9,00:00:14,18.9,0,--.--,337,--.--,46,0000:00:00,50,1,0,0,40,0,2,--.--,0,0,0,--.--,0.75,368,--.--,97,--.--,--:--:--,0,--.--,09:56:13,8/15/2022,--.--,--.--,--.--,--.--,--.--,--.--,--.--,--.--,--.--,--.--,--.--,--.--,0,0.000,0.000,0.000,0.000,0.000,0.000,0.000,0.000,0.000,0.000,0.000,0.000,false,false,false,false,false,false,false,false,false,false,false,false,--.--,--.--,--.--,--.--,--.--,--.--,--.--,--.--,47.6197013,-122.3631515,10TET 47854 74229,1.0,1.0,0.0,3,10,--.--,--.--,,--.--,--.--,--.--,0,0,--.--,--.--,0,-8.2,41.5,2.4,-1.3,0.3,-0.1,--.--,--.--,--.--,--.--,--.--,--.--,--.--,--.--,--.--,--.--,--.--,--.--,102.90,57.27,--.--,0,0,0.1,0.1,0.2,0,0,0,--.--,--.--,--.--
2022-08-15 09:56:15.886,1.7,-1.1,15,0.0,0.0,0.0,0.0,0.0,0.000,-0.2,-0.2,2.1,-0.190,-0.170,0.000,13.9,00:00:15,20.2,0,--.--,338,--.--,30,0000:00:00,50,1,0,0,40,0,2,--.--,0,0,0,--.--,7.18,370,--.--,97,--.--,--:--:--,0,--.--,09:56:14,8/15/2022,--.--,--.--,--.--,--.--,--.--,--.--,--.--,--.--,--.--,--.--,--.--,--.--,0,0.000,0.000,0.000,0.000,0.000,0.000,0.000,0.000,0.000,0.000,0.000,0.000,false,false,false,false,false,false,false,false,false,false,false,false,--.--,--.--,--.--,--.--,--.--,--.--,--.--,--.--,47.6196937,-122.3631439,10TET 47854 74228,1.0,1.0,0.0,3,10,--.--,--.--,,--.--,--.--,--.--,0,0,--.--,--.--,0,-9.4,41.8,2.4,-0.7,0.2,0.2,--.--,--.--,--.--,--.--,--.--,--.--,--.--,--.--,--.--,--.--,--.--,--.--,102.94,57.24,--.--,0,0,0.7,0.7,0.5,0,0,0,--.--,--.--,--.--
2022-08-15 09:56:16.895,-2.0,1.3,17,0.0,0.0,0.0,0.0,0.0,0.000,0.0,-0.7,1.6,-0.320,-0.310,0.000,20.6,00:00:16,21.7,0,--.--,338,--.--,57,0000:00:00,50,1,0,0,40,0,2,--.--,0,0,0,--.--,3.52,371,--.--,97,--.--,--:--:--,0,--.--,09:56:15,8/15/2022,--.--,--.--,--.--,--.--,--.--,--.--,--.--,--.--,--.--,--.--,--.--,--.--,0,0.000,0.000,0.000,0.000,0.000,0.000,0.000,0.000,0.000,0.000,0.000,0.000,false,false,false,false,false,false,false,false,false,false,false,false,--.--,--.--,--.--,--.--,--.--,--.--,--.--,--.--,47.6196937,-122.3631439,10TET 47854 74228,1.0,1.0,0.0,3,10,--.--,--.--,,--.--,--.--,--.--,0,0,--.--,--.--,0,-10.9,42.5,2.7,-0.7,-0.0,-0.0,--.--,--.--,--.--,--.--,--.--,--.--,--.--,--.--,--.--,--.--,--.--,--.--,102.94,57.20,--.--,0,0,0.2,0.4,0.2,0,0,0,--.--,--.--,--.--
2022-08-15 09:56:17.887,0.8,4.5,45,0.0,0.0,0.0,0.0,0.0,0.000,0.0,-0.7,1.6,-0.310,-0.312,0.000,20.6,00:00:17,22.9,0,--.--,337,--.--,52,0000:00:00,50,1,0,0,40,0,2,--.--,0,0,0,--.--,0.84,372,--.--,97,--.--,--:--:--,0,--.--,09:56:16,8/15/2022,--.--,--.--,--.--,--.--,--.--,--.--,--.--,--.--,--.--,--.--,--.--,--.--,0,0.000,0.000,0.000,0.000,0.000,0.000,0.000,0.000,0.000,0.000,0.000,0.000,false,false,false,false,false,false,false,false,false,false,false,false,--.--,--.--,--.--,--.--,--.--,--.--,--.--,--.--,47.6196899,-122.3631439,10TET 47854 74228,1.0,1.0,0.0,3,10,--.--,--.--,,--.--,--.--,--.--,0,0,--.--,--.--,0,-11.8,43.1,2.7,-0.4,0.2,0.0,--.--,--.--,--.--,--.--,--.--,--.--,--.--,--.--,--.--,--.--,--.--,--.--,102.96,57.16,--.--,0,0,0.1,0.1,0.1,0,0,0,--.--,--.--,--.--
2022-08-15 09:56:18.887,-3.1,1.0,44,0.0,0.0,0.0,0.0,0.0,0.000,0.1,-0.8,1.4,-0.360,-0.422,0.000,20.6,00:00:18,23.3,0,--.--,338,--.--,57,0000:00:00,50,1,0,0,40,0,2,--.--,0,0,0,--.--,1.45,373,--.--,97,--.--,--:--:--,0,--.--,09:56:17,8/15/2022,--.--,--.--,--.--,--.--,--.--,--.--,--.--,--.--,--.--,--.--,--.--,--.--,0,0.000,0.000,0.000,0.000,0.000,0.000,0.000,0.000,0.000,0.000,0.000,0.000,false,false,false,false,false,false,false,false,false,false,false,false,--.--,--.--,--.--,--.--,--.--,--.--,--.--,--.--,47.6196899,-122.3631515,10TET 47854 74228,1.0,1.0,0.0,3,10,--.--,--.--,,--.--,--.--,--.--,0,0,--.--,--.--,0,-12.3,43.0,2.9,-0.1,-0.3,-0.1,--.--,--.--,--.--,--.--,--.--,--.--,--.--,--.--,--.--,--.--,--.--,--.--,102.97,57.13,--.--,0,0,0.2,0.2,0.2,0,0,0,--.--,--.--,--.--
2022-08-15 09:56:19.896,0.2,0.2,40,0.0,0.0,0.0,0.0,0.0,0.000,0.1,-0.4,1.9,-0.220,-0.157,0.000,20.6,00:00:19,23.8,0,--.--,341,--.--,38,0000:00:00,50,1,0,0,40,0,2,--.--,0,0,0,--.--,3.17,374,--.--,97,--.--,--:--:--,0,--.--,09:56:18,8/15/2022,--.--,--.--,--.--,--.--,--.--,--.--,--.--,--.--,--.--,--.--,--.--,--.--,0,0.000,0.000,0.000,0.000,0.000,0.000,0.000,0.000,0.000,0.000,0.000,0.000,false,false,false,false,false,false,false,false,false,false,false,false,--.--,--.--,--.--,--.--,--.--,--.--,--.--,--.--,47.6196861,-122.3631515,10TET 47854 74227,1.0,1.0,0.0,3,10,--.--,--.--,,--.--,--.--,--.--,0,0,--.--,--.--,0,-13.2,42.0,2.2,-0.4,-0.4,-0.2,--.--,--.--,--.--,--.--,--.--,--.--,--.--,--.--,--.--,--.--,--.--,--.--,102.99,57.11,--.--,0,0,0.2,0.1,0.1,0,0,0,--.--,--.--,--.--
2022-08-15 09:56:20.901,1.0,-2.1,40,0.0,0.0,0.0,0.0,0.0,0.000,0.1,-0.4,1.9,-0.230,-0.152,0.000,20.6,00:00:20,24.4,0,--.--,343,--.--,38,0000:00:00,50,1,0,0,40,0,2,--.--,0,0,0,--.--,4.18,374,--.--,97,--.--,--:--:--,0,--.--,09:56:19,8/15/2022,--.--,--.--,--.--,--.--,--.--,--.--,--.--,--.--,--.--,--.--,--.--,--.--,0,0.000,0.000,0.000,0.000,0.000,0.000,0.000,0.000,0.000,0.000,0.000,0.000,false,false,false,false,false,false,false,false,false,false,false,false,--.--,--.--,--.--,--.--,--.--,--.--,--.--,--.--,47.6196861,-122.3631515,10TET 47854 74227,1.0,1.0,0.0,3,10,--.--,--.--,,--.--,--.--,--.--,0,0,--.--,--.--,0,-14.0,41.5,2.2,-0.2,-0.6,-0.1,--.--,--.--,--.--,--.--,--.--,--.--,--.--,--.--,--.--,--.--,--.--,--.--,103.01,57.06,--.--,0,0,0.1,0.1,0.1,0,0,0,--.--,--.--,--.--
2022-08-15 09:56:21.900,0.4,3.3,40,0.0,0.0,0.0,0.0,0.0,0.000,0.0,-0.7,1.6,-0.320,-0.319,0.000,20.6,00:00:21,24.6,0,--.--,344,--.--,49,0000:00:00,50,1,0,0,40,0,2,--.--,0,0,0,--.--,1.11,375,--.--,97,--.--,--:--:--,0,--.--,09:56:20,8/15/2022,--.--,--.--,--.--,--.--,--.--,--.--,--.--,--.--,--.--,--.--,--.--,--.--,0,0.000,0.000,0.000,0.000,0.000,0.000,0.000,0.000,0.000,0.000,0.000,0.000,false,false,false,false,false,false,false,false,false,false,false,false,--.--,--.--,--.--,--.--,--.--,--.--,--.--,--.--,47.6196861,-122.3631515,10TET 47854 74227,1.0,1.0,0.0,3,10,--.--,--.--,,--.--,--.--,--.--,0,0,--.--,--.--,0,-14.4,41.1,2.4,-0.2,-0.7,0.0,--.--,--.--,--.--,--.--,--.--,--.--,--.--,--.--,--.--,--.--,--.--,--.--,103.03,57.04,--.--,0,0,0.1,0.1,0.1,0,0,0,--.--,--.--,--.--
2022-08-15 09:56:22.895,-1.5,2.4,42,0.0,0.0,0.0,0.0,0.0,0.000,0.1,-0.6,1.6,-0.310,-0.304,0.000,20.6,00:00:22,24.8,0,--.--,344,--.--,46,0000:00:00,50,1,0,0,40,0,2,--.--,0,0,0,--.--,0.88,375,--.--,97,--.--,--:--:--,0,--.--,09:56:21,8/15/2022,--.--,--.--,--.--,--.--,--.--,--.--,--.--,--.--,--.--,--.--,--.--,--.--,0,0.000,0.000,0.000,0.000,0.000,0.000,0.000,0.000,0.000,0.000,0.000,0.000,false,false,false,false,false,false,false,false,false,false,false,false,--.--,--.--,--.--,--.--,--.--,--.--,--.--,--.--,47.6196861,-122.3631515,10TET 47854 74227,1.0,1.0,0.0,3,10,--.--,--.--,,--.--,--.--,--.--,0,0,--.--,--.--,0,-14.6,41.1,2.3,0.0,-0.3,-0.0,--.--,--.--,--.--,--.--,--.--,--.--,--.--,--.--,--.--,--.--,--.--,--.--,103.03,57.00,--.--,0,0,0.1,0.1,0.1,0,0,0,--.--,--.--,--.--
2022-08-15 09:56:23.898,0.2,2.7,43,0.0,0.0,0.0,0.0,0.0,0.000,-0.0,-0.7,1.5,-0.350,-0.372,0.000,20.6,00:00:23,24.8,0,--.--,344,--.--,53,0000:00:00,50,1,0,0,40,0,2,--.--,0,0,0,--.--,1.06,376,--.--,97,--.--,--:--:--,0,--.--,09:56:22,8/15/2022,--.--,--.--,--.--,--.--,--.--,--.--,--.--,--.--,--.--,--.--,--.--,--.--,0,0.000,0.000,0.000,0.000,0.000,0.000,0.000,0.000,0.000,0.000,0.000,0.000,false,false,false,false,false,false,false,false,false,false,false,false,--.--,--.--,--.--,--.--,--.--,--.--,--.--,--.--,47.6196861,-122.3631515,10TET 47854 74227,1.0,1.0,0.0,3,10,--.--,--.--,,--.--,--.--,--.--,0,0,--.--,--.--,0,-14.6,41.1,2.4,0.1,-0.3,0.0,--.--,--.--,--.--,--.--,--.--,--.--,--.--,--.--,--.--,--.--,--.--,--.--,103.05,56.98,--.--,0,0,0.0,0.1,0.1,0,0,0,--.--,--.--,--.--
2022-08-15 09:56:24.901,-1.1,0.7,45,0.0,0.0,0.0,0.0,0.0,0.000,0.2,-0.6,1.7,-0.280,-0.244,0.000,20.6,00:00:24,24.6,0,--.--,345,--.--,42,0000:00:00,50,1,0,0,40,0,2,--.--,0,0,0,--.--,1.39,376,--.--,97,--.--,--:--:--,0,--.--,09:56:23,8/15/2022,--.--,--.--,--.--,--.--,--.--,--.--,--.--,--.--,--.--,--.--,--.--,--.--,0,0.000,0.000,0.000,0.000,0.000,0.000,0.000,0.000,0.000,0.000,0.000,0.000,false,false,false,false,false,false,false,false,false,false,false,false,--.--,--.--,--.--,--.--,--.--,--.--,--.--,--.--,47.6196861,-122.3631591,10TET 47853 74227,1.0,1.0,0.0,3,10,--.--,--.--,,--.--,--.--,--.--,0,0,--.--,--.--,0,-14.6,40.6,2.2,0.3,-0.3,-0.2,--.--,--.--,--.--,--.--,--.--,--.--,--.--,--.--,--.--,--.--,--.--,--.--,103.06,56.97,--.--,0,0,0.1,0.1,0.1,0,0,0,--.--,--.--,--.--
2022-08-15 09:56:25.900,1.9,-5.5,46,0.0,0.0,0.0,0.0,0.0,0.000,-0.0,-0.4,1.9,-0.230,-0.165,0.000,20.6,00:00:25,24.3,0,--.--,345,--.--,38,0000:00:00,50,1,0,0,40,0,2,--.--,0,0,0,--.--,1.98,377,--.--,97,--.--,--:--:--,0,--.--,09:56:24,8/15/2022,--.--,--.--,--.--,--.--,--.--,--.--,--.--,--.--,--.--,--.--,--.--,--.--,0,0.000,0.000,0.000,0.000,0.000,0.000,0.000,0.000,0.000,0.000,0.000,0.000,false,false,false,false,false,false,false,false,false,false,false,false,--.--,--.--,--.--,--.--,--.--,--.--,--.--,--.--,47.6196899,-122.3631515,10TET 47854 74228,1.0,1.0,0.0,3,10,--.--,--.--,,--.--,--.--,--.--,0,0,--.--,--.--,0,-14.2,40.7,2.2,0.3,-0.1,0.1,--.--,--.--,--.--,--.--,--.--,--.--,--.--,--.--,--.--,--.--,--.--,--.--,103.08,56.95,--.--,0,0,0.6,0.9,0.5,0,0,0,--.--,--.--,--.--
2022-08-15 09:56:26.899,0.8,2.7,45,0.0,0.0,0.0,0.0,0.0,0.000,0.1,-0.8,1.5,-0.350,-0.390,0.000,20.6,00:00:26,23.8,0,--.--,344,--.--,50,0000:00:00,50,1,0,0,40,0,2,--.--,0,0,0,--.--,0.85,377,--.--,97,--.--,--:--:--,0,--.--,09:56:25,8/15/2022,--.--,--.--,--.--,--.--,--.--,--.--,--.--,--.--,--.--,--.--,--.--,--.--,0,0.000,0.000,0.000,0.000,0.000,0.000,0.000,0.000,0.000,0.000,0.000,0.000,false,false,false,false,false,false,false,false,false,false,false,false,--.--,--.--,--.--,--.--,--.--,--.--,--.--,--.--,47.6196899,-122.3631515,10TET 47854 74228,1.0,1.0,0.0,3,10,--.--,--.--,,--.--,--.--,--.--,0,0,--.--,--.--,0,-13.7,40.8,2.5,0.2,-0.1,-0.1,--.--,--.--,--.--,--.--,--.--,--.--,--.--,--.--,--.--,--.--,--.--,--.--,103.10,56.93,--.--,0,0,0.1,0.0,0.0,0,0,0,--.--,--.--,--.--
2022-08-15 09:56:27.900,-2.0,3.5,43,0.0,0.0,0.0,0.0,0.0,0.000,0.1,-0.8,1.5,-0.360,-0.404,0.000,20.6,00:00:27,23.6,0,--.--,344,--.--,50,0000:00:00,50,1,0,0,40,0,2,--.--,0,0,0,--.--,1.01,377,--.--,97,--.--,--:--:--,0,--.--,09:56:26,8/15/2022,--.--,--.--,--.--,--.--,--.--,--.--,--.--,--.--,--.--,--.--,--.--,--.--,0,0.000,0.000,0.000,0.000,0.000,0.000,0.000,0.000,0.000,0.000,0.000,0.000,false,false,false,false,false,false,false,false,false,false,false,false,--.--,--.--,--.--,--.--,--.--,--.--,--.--,--.--,47.6196899,-122.3631591,10TET 47853 74228,1.0,1.0,0.0,3,10,--.--,--.--,,--.--,--.--,--.--,0,0,--.--,--.--,0,-13.5,40.7,2.3,0.3,-0.0,-0.1,--.--,--.--,--.--,--.--,--.--,--.--,--.--,--.--,--.--,--.--,--.--,--.--,103.10,56.91,--.--,0,0,0.1,0.1,0.1,0,0,0,--.--,--.--,--.--
2022-08-15 09:56:28.897,-0.9,1.5,45,0.0,0.0,0.0,0.0,0.0,0.000,0.1,-0.8,1.5,-0.360,-0.410,0.000,20.6,00:00:28,23.4,0,--.--,345,--.--,53,0000:00:00,50,1,0,0,40,0,2,--.--,0,0,0,--.--,1.40,378,--.--,97,--.--,--:--:--,0,--.--,09:56:27,8/15/2022,--.--,--.--,--.--,--.--,--.--,--.--,--.--,--.--,--.--,--.--,--.--,--.--,0,0.000,0.000,0.000,0.000,0.000,0.000,0.000,0.000,0.000,0.000,0.000,0.000,false,false,false,false,false,false,false,false,false,false,false,false,--.--,--.--,--.--,--.--,--.--,--.--,--.--,--.--,47.6196899,-122.3631591,10TET 47853 74228,1.0,1.0,0.0,3,10,--.--,--.--,,--.--,--.--,--.--,0,0,--.--,--.--,0,-13.4,40.4,2.4,0.3,-0.0,-0.1,--.--,--.--,--.--,--.--,--.--,--.--,--.--,--.--,--.--,--.--,--.--,--.--,103.12,56.89,--.--,0,0,0.2,0.4,0.3,0,0,0,--.--,--.--,--.--
2022-08-15 09:56:29.897,-0.3,-1.5,47,0.0,0.0,0.0,0.0,0.0,0.000,0.1,-0.5,1.8,-0.270,-0.220,0.000,20.6,00:00:29,23.2,0,--.--,346,--.--,41,0000:00:00,50,1,0,0,40,0,2,--.--,0,0,0,--.--,1.96,378,--.--,97,--.--,--:--:--,0,--.--,09:56:28,8/15/2022,--.--,--.--,--.--,--.--,--.--,--.--,--.--,--.--,--.--,--.--,--.--,--.--,0,0.000,0.000,0.000,0.000,0.000,0.000,0.000,0.000,0.000,0.000,0.000,0.000,false,false,false,false,false,false,false,false,false,false,false,false,--.--,--.--,--.--,--.--,--.--,--.--,--.--,--.--,47.6196899,-122.3631591,10TET 47853 74228,1.0,1.0,0.0,3,10,--.--,--.--,,--.--,--.--,--.--,0,0,--.--,--.--,0,-13.2,39.9,2.1,0.3,-0.1,-0.1,--.--,--.--,--.--,--.--,--.--,--.--,--.--,--.--,--.--,--.--,--.--,--.--,103.14,56.89,--.--,0,0,0.1,0.1,0.1,0,0,0,--.--,--.--,--.--
2022-08-15 09:56:30.900,1.2,-4.3,48,0.0,0.0,0.0,0.0,0.0,0.000,0.0,-0.4,1.8,-0.250,-0.193,0.000,20.6,00:00:30,23.6,0,--.--,346,--.--,39,0000:00:00,50,1,0,0,40,0,2,--.--,0,0,0,--.--,2.37,379,--.--,97,--.--,--:--:--,0,--.--,09:56:29,8/15/2022,--.--,--.--,--.--,--.--,--.--,--.--,--.--,--.--,--.--,--.--,--.--,--.--,0,0.000,0.000,0.000,0.000,0.000,0.000,0.000,0.000,0.000,0.000,0.000,0.000,false,false,false,false,false,false,false,false,false,false,false,false,--.--,--.--,--.--,--.--,--.--,--.--,--.--,--.--,47.6196861,-122.3631591,10TET 47853 74227,1.0,1.0,0.0,3,10,--.--,--.--,,--.--,--.--,--.--,0,0,--.--,--.--,0,-13.6,39.9,2.1,0.1,-0.0,-0.0,--.--,--.--,--.--,--.--,--.--,--.--,--.--,--.--,--.--,--.--,--.--,--.--,103.14,56.82,--.--,0,0,0.1,0.1,0.1,0,0,0,--.--,--.--,--.--
2022-08-15 09:56:31.899,0.5,1.8,46,0.0,0.0,0.0,0.0,0.0,0.000,0.0,-0.8,1.5,-0.360,-0.411,0.000,20.6,00:00:31,24.0,0,--.--,347,--.--,52,0000:00:00,50,1,0,0,40,0,2,--.--,0,0,0,--.--,1.15,379,--.--,97,--.--,--:--:--,0,--.--,09:56:30,8/15/2022,--.--,--.--,--.--,--.--,--.--,--.--,--.--,--.--,--.--,--.--,--.--,--.--,0,0.000,0.000,0.000,0.000,0.000,0.000,0.000,0.000,0.000,0.000,0.000,0.000,false,false,false,false,false,false,false,false,false,false,false,false,--.--,--.--,--.--,--.--,--.--,--.--,--.--,--.--,47.6196899,-122.3631591,10TET 47853 74228,1.0,1.0,0.0,3,10,--.--,--.--,,--.--,--.--,--.--,0,0,--.--,--.--,0,-14.1,39.7,2.4,-0.1,-0.1,0.0,--.--,--.--,--.--,--.--,--.--,--.--,--.--,--.--,--.--,--.--,--.--,--.--,103.15,56.82,--.--,0,0,0.1,0.1,0.0,0,0,0,--.--,--.--,--.--
2022-08-15 09:56:32.903,-2.1,1.6,41,0.0,0.0,0.0,0.0,0.0,0.000,0.0,-0.9,1.3,-0.400,-0.491,0.000,20.6,00:00:32,23.8,0,--.--,347,--.--,57,0000:00:00,50,1,0,0,40,0,2,--.--,0,0,0,--.--,2.05,379,--.--,97,--.--,--:--:--,0,--.--,09:56:31,8/15/2022,--.--,--.--,--.--,--.--,--.--,--.--,--.--,--.--,--.--,--.--,--.--,--.--,0,0.000,0.000,0.000,0.000,0.000,0.000,0.000,0.000,0.000,0.000,0.000,0.000,false,false,false,false,false,false,false,false,false,false,false,false,--.--,--.--,--.--,--.--,--.--,--.--,--.--,--.--,47.6196861,-122.3631591,10TET 47853 74227,1.0,1.0,0.0,3,10,--.--,--.--,,--.--,--.--,--.--,0,0,--.--,--.--,0,-14.0,39.8,2.4,0.1,0.2,-0.0,--.--,--.--,--.--,--.--,--.--,--.--,--.--,--.--,--.--,--.--,--.--,--.--,103.17,56.82,--.--,0,0,0.5,0.7,0.4,0,0,0,--.--,--.--,--.--
2022-08-15 09:56:33.902,-4.1,1.9,42,0.0,0.0,0.0,0.0,0.0,0.000,0.2,-0.8,1.5,-0.370,-0.411,0.000,20.6,00:00:33,23.9,0,--.--,347,--.--,52,0000:00:00,50,1,0,0,40,0,2,--.--,0,0,0,--.--,1.10,380,--.--,97,--.--,--:--:--,0,--.--,09:56:32,8/15/2022,--.--,--.--,--.--,--.--,--.--,--.--,--.--,--.--,--.--,--.--,--.--,--.--,0,0.000,0.000,0.000,0.000,0.000,0.000,0.000,0.000,0.000,0.000,0.000,0.000,false,false,false,false,false,false,false,false,false,false,false,false,--.--,--.--,--.--,--.--,--.--,--.--,--.--,--.--,47.6196861,-122.3631591,10TET 47853 74227,1.0,1.0,0.0,3,10,--.--,--.--,,--.--,--.--,--.--,0,0,--.--,--.--,0,-14.1,39.8,2.3,0.2,0.0,-0.3,--.--,--.--,--.--,--.--,--.--,--.--,--.--,--.--,--.--,--.--,--.--,--.--,103.19,56.82,--.--,0,0,0.2,0.2,0.2,0,0,0,--.--,--.--,--.--
2022-08-15 09:56:34.896,2.6,-3.9,44,0.0,0.0,0.0,0.0,0.0,0.000,0.1,-0.4,1.9,-0.240,-0.163,0.000,20.6,00:00:34,23.9,0,--.--,346,--.--,37,0000:00:00,50,1,0,0,40,0,2,--.--,0,0,0,--.--,2.96,381,--.--,97,--.--,--:--:--,0,--.--,09:56:33,8/15/2022,--.--,--.--,--.--,--.--,--.--,--.--,--.--,--.--,--.--,--.--,--.--,--.--,0,0.000,0.000,0.000,0.000,0.000,0.000,0.000,0.000,0.000,0.000,0.000,0.000,false,false,false,false,false,false,false,false,false,false,false,false,--.--,--.--,--.--,--.--,--.--,--.--,--.--,--.--,47.6196899,-122.3631591,10TET 47853 74228,1.0,1.0,0.0,3,10,--.--,--.--,,--.--,--.--,--.--,0,0,--.--,--.--,0,-14.0,39.8,2.0,0.2,0.1,-0.1,--.--,--.--,--.--,--.--,--.--,--.--,--.--,--.--,--.--,--.--,--.--,--.--,103.21,56.79,--.--,0,0,0.3,0.2,0.2,0,0,0,--.--,--.--,--.--
2022-08-15 09:56:35.900,2.3,-3.9,44,0.0,0.0,0.0,0.0,0.0,0.000,0.0,-0.5,1.8,-0.270,-0.215,0.000,20.6,00:00:35,23.5,0,--.--,346,--.--,41,0000:00:00,50,1,0,0,40,0,2,--.--,0,0,0,--.--,1.69,381,--.--,97,--.--,--:--:--,0,--.--,09:56:34,8/15/2022,--.--,--.--,--.--,--.--,--.--,--.--,--.--,--.--,--.--,--.--,--.--,--.--,0,0.000,0.000,0.000,0.000,0.000,0.000,0.000,0.000,0.000,0.000,0.000,0.000,false,false,false,false,false,false,false,false,false,false,false,false,--.--,--.--,--.--,--.--,--.--,--.--,--.--,--.--,47.6196899,-122.3631591,10TET 47853 74228,1.0,1.0,0.0,3,10,--.--,--.--,,--.--,--.--,--.--,0,0,--.--,--.--,0,-13.6,39.8,2.2,0.2,0.1,-0.0,--.--,--.--,--.--,--.--,--.--,--.--,--.--,--.--,--.--,--.--,--.--,--.--,103.21,56.80,--.--,0,0,0.2,0.1,0.1,0,0,0,--.--,--.--,--.--
2022-08-15 09:56:36.931,-0.5,1.7,40,0.0,0.0,0.0,0.0,0.0,0.000,-0.1,-1.0,1.2,-0.430,-0.544,0.000,20.6,00:00:36,23.3,0,--.--,346,--.--,62,0000:00:00,50,1,0,0,40,0,2,--.--,0,0,0,--.--,14.53,383,--.--,97,--.--,--:--:--,0,--.--,09:56:35,8/15/2022,--.--,--.--,--.--,--.--,--.--,--.--,--.--,--.--,--.--,--.--,--.--,--.--,0,0.000,0.000,0.000,0.000,0.000,0.000,0.000,0.000,0.000,0.000,0.000,0.000,false,false,false,false,false,false,false,false,false,false,false,false,--.--,--.--,--.--,--.--,--.--,--.--,--.--,--.--,47.6196899,-122.3631591,10TET 47853 74228,1.0,1.0,0.0,3,10,--.--,--.--,,--.--,--.--,--.--,0,0,--.--,--.--,0,-13.4,39.9,2.6,0.6,0.6,0.1,--.--,--.--,--.--,--.--,--.--,--.--,--.--,--.--,--.--,--.--,--.--,--.--,103.23,56.79,--.--,0,0,0.7,0.7,0.5,0,0,0,--.--,--.--,--.--
2022-08-15 09:56:37.923,2.9,-3.8,42,0.0,0.0,0.0,0.0,0.0,0.000,-0.1,-1.1,1.1,-0.460,-0.475,0.000,20.6,00:00:37,22.9,0,--.--,344,--.--,53,0000:00:00,50,1,0,0,40,0,2,--.--,0,0,0,--.--,12.43,386,--.--,97,--.--,--:--:--,0,--.--,09:56:36,8/15/2022,--.--,--.--,--.--,--.--,--.--,--.--,--.--,--.--,--.--,--.--,--.--,--.--,0,0.000,0.000,0.000,0.000,0.000,0.000,0.000,0.000,0.000,0.000,0.000,0.000,false,false,false,false,false,false,false,false,false,false,false,false,--.--,--.--,--.--,--.--,--.--,--.--,--.--,--.--,47.6196899,-122.3631591,10TET 47853 74228,1.0,1.0,0.0,3,10,--.--,--.--,,--.--,--.--,--.--,0,0,--.--,--.--,0,-12.8,40.5,2.5,0.8,0.9,0.1,--.--,--.--,--.--,--.--,--.--,--.--,--.--,--.--,--.--,--.--,--.--,--.--,103.24,56.75,--.--,0,0,0.4,0.3,0.3,0,0,0,--.--,--.--,--.--
2022-08-15 09:56:38.918,-0.7,-8.6,54,0.0,0.0,0.0,0.0,0.0,0.000,-0.1,-1.1,1.1,-0.470,-0.460,0.000,20.6,00:00:38,22.8,0,--.--,345,--.--,51,0000:00:00,50,1,0,0,40,0,2,--.--,0,0,0,--.--,14.97,390,--.--,97,--.--,--:--:--,0,--.--,09:56:37,8/15/2022,--.--,--.--,--.--,--.--,--.--,--.--,--.--,--.--,--.--,--.--,--.--,--.--,0,0.000,0.000,0.000,0.000,0.000,0.000,0.000,0.000,0.000,0.000,0.000,0.000,false,false,false,false,false,false,false,false,false,false,false,false,--.--,--.--,--.--,--.--,--.--,--.--,--.--,--.--,47.6196861,-122.3631668,10TET 47852 74227,1.0,1.0,0.0,3,10,--.--,--.--,,--.--,--.--,--.--,0,0,--.--,--.--,0,-12.7,40.3,2.5,0.4,0.4,0.1,--.--,--.--,--.--,--.--,--.--,--.--,--.--,--.--,--.--,--.--,--.--,--.--,103.26,56.75,--.--,0,0,0.6,0.7,0.5,0,0,0,--.--,--.--,--.--
2022-08-15 09:56:39.923,3.9,0.1,59,0.0,0.0,0.0,0.0,0.0,0.000,0.1,-0.9,1.4,-0.390,-0.308,0.000,20.6,00:00:39,23.8,0,--.--,350,--.--,37,0000:00:00,50,1,0,0,40,0,2,--.--,0,0,0,--.--,9.45,392,--.--,97,--.--,--:--:--,0,--.--,09:56:38,8/15/2022,--.--,--.--,--.--,--.--,--.--,--.--,--.--,--.--,--.--,--.--,--.--,--.--,0,0.000,0.000,0.000,0.000,0.000,0.000,0.000,0.000,0.000,0.000,0.000,0.000,false,false,false,false,false,false,false,false,false,false,false,false,--.--,--.--,--.--,--.--,--.--,--.--,--.--,--.--,47.6196823,-122.3631668,10TET 47852 74227,1.0,1.0,0.0,3,10,--.--,--.--,,--.--,--.--,--.--,0,0,--.--,--.--,0,-14.2,38.6,2.2,-0.5,-0.8,-0.1,--.--,--.--,--.--,--.--,--.--,--.--,--.--,--.--,--.--,--.--,--.--,--.--,103.26,56.73,--.--,0,0,2.0,1.4,0.8,0,0,0,--.--,--.--,--.--
2022-08-15 09:56:40.914,0.5,2.8,53,0.0,0.0,0.0,0.0,0.0,0.000,-0.0,-1.4,0.9,-0.540,-0.603,0.000,27.3,00:00:40,24.9,0,--.--,352,--.--,59,0000:00:00,50,1,0,0,40,0,2,--.--,0,0,0,--.--,1.80,392,--.--,97,--.--,--:--:--,0,--.--,09:56:39,8/15/2022,--.--,--.--,--.--,--.--,--.--,--.--,--.--,--.--,--.--,--.--,--.--,--.--,0,0.000,0.000,0.000,0.000,0.000,0.000,0.000,0.000,0.000,0.000,0.000,0.000,false,false,false,false,false,false,false,false,false,false,false,false,--.--,--.--,--.--,--.--,--.--,--.--,--.--,--.--,47.6196823,-122.3631668,10TET 47852 74227,1.0,1.0,0.0,3,10,--.--,--.--,,--.--,--.--,--.--,0,0,--.--,--.--,0,-15.5,37.6,2.6,-0.7,-1.0,0.1,--.--,--.--,--.--,--.--,--.--,--.--,--.--,--.--,--.--,--.--,--.--,--.--,103.26,56.68,--.--,0,0,0.2,0.3,0.2,0,0,0,--.--,--.--,--.--
2022-08-15 09:56:41.918,-5.7,6.8,56,0.0,0.0,0.0,0.0,0.0,0.000,0.2,-1.4,0.9,-0.530,-0.627,0.000,27.3,00:00:41,25.6,0,--.--,353,--.--,55,0000:00:00,50,1,0,0,40,0,2,--.--,0,0,0,--.--,1.38,393,--.--,97,--.--,--:--:--,0,--.--,09:56:40,8/15/2022,--.--,--.--,--.--,--.--,--.--,--.--,--.--,--.--,--.--,--.--,--.--,--.--,0,0.000,0.000,0.000,0.000,0.000,0.000,0.000,0.000,0.000,0.000,0.000,0.000,false,false,false,false,false,false,false,false,false,false,false,false,--.--,--.--,--.--,--.--,--.--,--.--,--.--,--.--,47.6196823,-122.3631668,10TET 47852 74227,1.0,1.0,0.0,3,10,--.--,--.--,,--.--,--.--,--.--,0,0,--.--,--.--,0,-16.1,37.2,2.4,-0.6,-0.6,-0.2,--.--,--.--,--.--,--.--,--.--,--.--,--.--,--.--,--.--,--.--,--.--,--.--,103.28,56.68,--.--,0,0,0.1,0.1,0.1,0,0,0,--.--,--.--,--.--
2022-08-15 09:56:42.913,1.3,2.4,58,0.0,0.0,0.0,0.0,0.0,0.000,0.0,-1.0,1.2,-0.440,-0.420,0.000,27.3,00:00:42,25.7,0,--.--,353,--.--,47,0000:00:00,50,1,0,0,40,0,2,--.--,0,0,0,--.--,0.84,394,--.--,97,--.--,--:--:--,0,--.--,09:56:41,8/15/2022,--.--,--.--,--.--,--.--,--.--,--.--,--.--,--.--,--.--,--.--,--.--,--.--,0,0.000,0.000,0.000,0.000,0.000,0.000,0.000,0.000,0.000,0.000,0.000,0.000,false,false,false,false,false,false,false,false,false,false,false,false,--.--,--.--,--.--,--.--,--.--,--.--,--.--,--.--,47.6196823,-122.3631668,10TET 47852 74227,1.0,1.0,0.0,3,10,--.--,--.--,,--.--,--.--,--.--,0,0,--.--,--.--,0,-16.3,37.2,2.1,-0.4,-0.4,-0.0,--.--,--.--,--.--,--.--,--.--,--.--,--.--,--.--,--.--,--.--,--.--,--.--,103.30,56.66,--.--,0,0,0.1,0.1,0.1,0,0,0,--.--,--.--,--.--
2022-08-15 09:56:43.916,0.6,-2.7,53,0.0,0.0,0.0,0.0,0.0,0.000,0.0,-0.9,1.4,-0.390,-0.319,0.000,27.3,00:00:43,25.8,0,--.--,354,--.--,40,0000:00:00,50,1,0,0,40,0,2,--.--,0,0,0,--.--,3.25,394,--.--,97,--.--,--:--:--,0,--.--,09:56:42,8/15/2022,--.--,--.--,--.--,--.--,--.--,--.--,--.--,--.--,--.--,--.--,--.--,--.--,0,0.000,0.000,0.000,0.000,0.000,0.000,0.000,0.000,0.000,0.000,0.000,0.000,false,false,false,false,false,false,false,false,false,false,false,false,--.--,--.--,--.--,--.--,--.--,--.--,--.--,--.--,47.6196823,-122.3631744,10TET 47852 74227,1.0,1.0,0.0,3,10,--.--,--.--,,--.--,--.--,--.--,0,0,--.--,--.--,0,-16.4,37.0,2.0,-0.2,-0.4,-0.0,--.--,--.--,--.--,--.--,--.--,--.--,--.--,--.--,--.--,--.--,--.--,--.--,103.32,56.64,--.--,0,0,0.1,0.1,0.1,0,0,0,--.--,--.--,--.--
2022-08-15 09:56:44.912,0.8,-0.7,64,0.0,0.0,0.0,0.0,0.0,0.000,0.2,-0.7,1.6,-0.340,-0.294,0.000,27.3,00:00:44,25.8,0,--.--,355,--.--,38,0000:00:00,50,1,0,0,40,0,2,--.--,0,0,0,--.--,12.04,396,--.--,97,--.--,--:--:--,0,--.--,09:56:43,8/15/2022,--.--,--.--,--.--,--.--,--.--,--.--,--.--,--.--,--.--,--.--,--.--,--.--,0,0.000,0.000,0.000,0.000,0.000,0.000,0.000,0.000,0.000,0.000,0.000,0.000,false,false,false,false,false,false,false,false,false,false,false,false,--.--,--.--,--.--,--.--,--.--,--.--,--.--,--.--,47.6196823,-122.3631744,10TET 47852 74227,1.0,1.0,0.0,3,10,--.--,--.--,,--.--,--.--,--.--,0,0,--.--,--.--,0,-16.5,36.5,2.0,-0.1,0.1,-0.2,--.--,--.--,--.--,--.--,--.--,--.--,--.--,--.--,--.--,--.--,--.--,--.--,103.32,56.61,--.--,0,0,0.8,1.0,0.6,0,0,0,--.--,--.--,--.--
2022-08-15 09:56:45.914,2.6,-1.4,56,0.0,0.0,0.0,0.0,0.0,0.000,-0.1,-1.0,1.3,-0.400,-0.471,0.000,27.3,00:00:45,25.5,0,--.--,356,--.--,53,0000:00:00,50,1,0,0,40,0,2,--.--,0,0,0,--.--,14.30,397,--.--,97,--.--,--:--:--,0,--.--,09:56:44,8/15/2022,--.--,--.--,--.--,--.--,--.--,--.--,--.--,--.--,--.--,--.--,--.--,--.--,0,0.000,0.000,0.000,0.000,0.000,0.000,0.000,0.000,0.000,0.000,0.000,0.000,false,false,false,false,false,false,false,false,false,false,false,false,--.--,--.--,--.--,--.--,--.--,--.--,--.--,--.--,47.6196861,-122.3631744,10TET 47852 74227,1.0,1.0,0.0,3,10,--.--,--.--,,--.--,--.--,--.--,0,0,--.--,--.--,0,-16.2,36.2,2.3,0.1,0.2,0.1,--.--,--.--,--.--,--.--,--.--,--.--,--.--,--.--,--.--,--.--,--.--,--.--,103.33,56.59,--.--,0,0,0.7,0.9,0.5,0,0,0,--.--,--.--,--.--
2022-08-15 09:56:46.911,-6.3,5.1,53,0.0,0.0,0.0,0.0,0.0,0.000,0.0,-1.2,1.0,-0.490,-0.620,0.000,27.3,00:00:46,24.8,0,--.--,356,--.--,65,0000:00:00,50,1,0,0,40,0,2,--.--,0,0,0,--.--,3.33,399,--.--,97,--.--,--:--:--,0,--.--,09:56:45,8/15/2022,--.--,--.--,--.--,--.--,--.--,--.--,--.--,--.--,--.--,--.--,--.--,--.--,0,0.000,0.000,0.000,0.000,0.000,0.000,0.000,0.000,0.000,0.000,0.000,0.000,false,false,false,false,false,false,false,false,false,false,false,false,--.--,--.--,--.--,--.--,--.--,--.--,--.--,--.--,47.6196861,-122.3631744,10TET 47852 74227,1.0,1.0,0.0,3,10,--.--,--.--,,--.--,--.--,--.--,0,0,--.--,--.--,0,-15.5,35.9,2.4,0.3,-0.4,-0.0,--.--,--.--,--.--,--.--,--.--,--.--,--.--,--.--,--.--,--.--,--.--,--.--,103.35,56.59,--.--,0,0,0.3,0.4,0.2,0,0,0,--.--,--.--,--.--
2022-08-15 09:56:47.914,0.1,2.3,56,0.0,0.0,0.0,0.0,0.0,0.000,0.3,-0.6,1.7,-0.300,-0.230,0.000,27.3,00:00:47,24.3,0,--.--,356,--.--,38,0000:00:00,50,1,0,0,40,0,2,--.--,0,0,0,--.--,2.93,399,--.--,97,--.--,--:--:--,0,--.--,09:56:46,8/15/2022,--.--,--.--,--.--,--.--,--.--,--.--,--.--,--.--,--.--,--.--,--.--,--.--,0,0.000,0.000,0.000,0.000,0.000,0.000,0.000,0.000,0.000,0.000,0.000,0.000,false,false,false,false,false,false,false,false,false,false,false,false,--.--,--.--,--.--,--.--,--.--,--.--,--.--,--.--,47.6196823,-122.3631744,10TET 47852 74227,1.0,1.0,0.0,3,10,--.--,--.--,,--.--,--.--,--.--,0,0,--.--,--.--,0,-15.0,35.8,1.9,0.4,-0.0,-0.3,--.--,--.--,--.--,--.--,--.--,--.--,--.--,--.--,--.--,--.--,--.--,--.--,103.35,56.55,--.--,0,0,0.2,0.3,0.2,0,0,0,--.--,--.--,--.--
2022-08-15 09:56:48.912,3.5,-5.1,57,0.0,0.0,0.0,0.0,0.0,0.000,0.0,-0.5,1.7,-0.280,-0.208,0.000,27.3,00:00:48,24.2,0,--.--,356,--.--,38,0000:00:00,50,1,0,0,40,0,2,--.--,0,0,0,--.--,2.41,400,--.--,97,--.--,--:--:--,0,--.--,09:56:47,8/15/2022,--.--,--.--,--.--,--.--,--.--,--.--,--.--,--.--,--.--,--.--,--.--,--.--,0,0.000,0.000,0.000,0.000,0.000,0.000,0.000,0.000,0.000,0.000,0.000,0.000,false,false,false,false,false,false,false,false,false,false,false,false,--.--,--.--,--.--,--.--,--.--,--.--,--.--,--.--,47.6196861,-122.3631744,10TET 47852 74227,1.0,1.0,0.0,3,10,--.--,--.--,,--.--,--.--,--.--,0,0,--.--,--.--,0,-14.9,35.8,2.1,0.3,-0.1,0.0,--.--,--.--,--.--,--.--,--.--,--.--,--.--,--.--,--.--,--.--,--.--,--.--,103.37,56.55,--.--,0,0,0.1,0.2,0.1,0,0,0,--.--,--.--,--.--
2022-08-15 09:56:49.917,-0.3,0.7,68,0.0,0.0,0.0,0.0,0.0,0.000,0.0,-0.8,1.4,-0.370,-0.370,0.000,27.3,00:00:49,24.1,0,--.--,356,--.--,48,0000:00:00,50,1,0,0,40,0,2,--.--,0,0,0,--.--,0.63,401,--.--,97,--.--,--:--:--,0,--.--,09:56:48,8/15/2022,--.--,--.--,--.--,--.--,--.--,--.--,--.--,--.--,--.--,--.--,--.--,--.--,0,0.000,0.000,0.000,0.000,0.000,0.000,0.000,0.000,0.000,0.000,0.000,0.000,false,false,false,false,false,false,false,false,false,false,false,false,--.--,--.--,--.--,--.--,--.--,--.--,--.--,--.--,47.6196861,-122.3631744,10TET 47852 74227,1.0,1.0,0.0,3,10,--.--,--.--,,--.--,--.--,--.--,0,0,--.--,--.--,0,-14.8,36.0,2.4,0.3,0.1,0.0,--.--,--.--,--.--,--.--,--.--,--.--,--.--,--.--,--.--,--.--,--.--,--.--,103.39,56.55,--.--,0,0,0.5,0.6,0.3,0,0,0,--.--,--.--,--.--
2022-08-15 09:56:50.916,-1.1,5.3,61,0.0,0.0,0.0,0.0,0.0,0.000,0.0,-1.0,1.2,-0.430,-0.430,0.000,27.3,00:00:50,23.9,0,--.--,356,--.--,44,0000:00:00,50,1,0,0,40,0,2,--.--,0,0,0,--.--,12.23,402,--.--,97,--.--,--:--:--,0,--.--,09:56:49,8/15/2022,--.--,--.--,--.--,--.--,--.--,--.--,--.--,--.--,--.--,--.--,--.--,--.--,0,0.000,0.000,0.000,0.000,0.000,0.000,0.000,0.000,0.000,0.000,0.000,0.000,false,false,false,false,false,false,false,false,false,false,false,false,--.--,--.--,--.--,--.--,--.--,--.--,--.--,--.--,47.6196861,-122.3631744,10TET 47852 74227,1.0,1.0,0.0,3,10,--.--,--.--,,--.--,--.--,--.--,0,0,--.--,--.--,0,-14.6,35.9,2.5,0.1,-0.0,-0.0,--.--,--.--,--.--,--.--,--.--,--.--,--.--,--.--,--.--,--.--,--.--,--.--,103.41,56.55,--.--,0,0,0.8,0.9,0.6,0,0,0,--.--,--.--,--.--
2022-08-15 09:56:51.915,1.1,-0.1,119,0.0,0.0,0.0,0.0,0.0,0.000,-0.3,-1.4,0.9,-0.540,-0.540,0.000,27.3,00:00:51,24.0,0,--.--,356,--.--,45,0000:00:00,50,1,0,0,40,0,2,--.--,0,0,0,--.--,6.56,404,--.--,97,--.--,--:--:--,0,--.--,09:56:50,8/15/2022,--.--,--.--,--.--,--.--,--.--,--.--,--.--,--.--,--.--,--.--,--.--,--.--,0,0.000,0.000,0.000,0.000,0.000,0.000,0.000,0.000,0.000,0.000,0.000,0.000,false,false,false,false,false,false,false,false,false,false,false,false,--.--,--.--,--.--,--.--,--.--,--.--,--.--,--.--,47.6196861,-122.3631744,10TET 47852 74227,1.0,1.0,0.0,3,10,--.--,--.--,,--.--,--.--,--.--,0,0,--.--,--.--,0,-14.7,35.7,2.7,0.1,-0.5,0.3,--.--,--.--,--.--,--.--,--.--,--.--,--.--,--.--,--.--,--.--,--.--,--.--,103.41,56.53,--.--,0,0,0.3,0.4,0.2,0,0,0,--.--,--.--,--.--
2022-08-15 09:56:52.914,0.3,-5.3,151,0.0,0.0,0.0,0.0,0.0,0.000,0.3,-1.0,1.3,-0.420,-0.391,0.000,27.3,00:00:52,23.9,0,--.--,358,--.--,36,0000:00:00,50,1,0,0,40,0,2,--.--,0,0,0,--.--,2.77,405,--.--,97,--.--,--:--:--,0,--.--,09:56:51,8/15/2022,--.--,--.--,--.--,--.--,--.--,--.--,--.--,--.--,--.--,--.--,--.--,--.--,0,0.000,0.000,0.000,0.000,0.000,0.000,0.000,0.000,0.000,0.000,0.000,0.000,false,false,false,false,false,false,false,false,false,false,false,false,--.--,--.--,--.--,--.--,--.--,--.--,--.--,--.--,47.6196861,-122.3631744,10TET 47852 74227,1.0,1.0,0.0,3,10,--.--,--.--,,--.--,--.--,--.--,0,0,--.--,--.--,0,-14.6,34.9,2.2,0.3,-1.1,-0.3,--.--,--.--,--.--,--.--,--.--,--.--,--.--,--.--,--.--,--.--,--.--,--.--,103.42,56.52,--.--,0,0,0.4,0.3,0.3,0,0,0,--.--,--.--,--.--
2022-08-15 09:56:53.919,5.2,-4.0,154,0.0,0.0,0.0,0.0,0.0,0.000,0.0,-1.1,1.1,-0.460,-0.515,0.000,27.3,00:00:53,23.2,0,--.--,359,--.--,54,0000:00:00,50,1,0,0,40,0,2,--.--,0,0,0,--.--,1.34,406,--.--,97,--.--,--:--:--,0,--.--,09:56:52,8/15/2022,--.--,--.--,--.--,--.--,--.--,--.--,--.--,--.--,--.--,--.--,--.--,--.--,0,0.000,0.000,0.000,0.000,0.000,0.000,0.000,0.000,0.000,0.000,0.000,0.000,false,false,false,false,false,false,false,false,false,false,false,false,--.--,--.--,--.--,--.--,--.--,--.--,--.--,--.--,47.6196899,-122.3631744,10TET 47852 74228,1.0,1.0,0.0,3,10,--.--,--.--,,--.--,--.--,--.--,0,0,--.--,--.--,0,-14.0,34.5,2.3,0.4,-1.5,0.0,--.--,--.--,--.--,--.--,--.--,--.--,--.--,--.--,--.--,--.--,--.--,--.--,103.44,56.53,--.--,0,0,0.6,0.6,0.3,0,0,0,--.--,--.--,--.--
2022-08-15 09:56:54.920,-4.4,3.8,140,0.0,0.0,0.0,0.0,0.0,0.000,0.0,-1.2,1.0,-0.510,-0.609,0.000,27.3,00:00:54,22.5,0,--.--,0,--.--,60,0000:00:00,50,1,0,0,40,0,2,--.--,0,0,0,--.--,4.40,407,--.--,97,--.--,--:--:--,0,--.--,09:56:53,8/15/2022,--.--,--.--,--.--,--.--,--.--,--.--,--.--,--.--,--.--,--.--,--.--,--.--,0,0.000,0.000,0.000,0.000,0.000,0.000,0.000,0.000,0.000,0.000,0.000,0.000,false,false,false,false,false,false,false,false,false,false,false,false,--.--,--.--,--.--,--.--,--.--,--.--,--.--,--.--,47.6196899,-122.3631744,10TET 47852 74228,1.0,1.0,0.0,3,10,--.--,--.--,,--.--,--.--,--.--,0,0,--.--,--.--,0,-13.3,34.1,2.4,0.7,-1.4,-0.0,--.--,--.--,--.--,--.--,--.--,--.--,--.--,--.--,--.--,--.--,--.--,--.--,103.44,56.53,--.--,0,0,0.4,0.4,0.2,0,0,0,--.--,--.--,--.--
2022-08-15 09:56:55.912,-7.5,3.6,105,0.0,0.0,0.0,0.0,0.0,0.000,0.1,-1.2,1.0,-0.480,-0.586,0.000,27.3,00:00:55,22.2,0,--.--,1,--.--,59,0000:00:00,50,1,0,0,40,0,2,--.--,0,0,0,--.--,2.82,408,--.--,97,--.--,--:--:--,0,--.--,09:56:54,8/15/2022,--.--,--.--,--.--,--.--,--.--,--.--,--.--,--.--,--.--,--.--,--.--,--.--,0,0.000,0.000,0.000,0.000,0.000,0.000,0.000,0.000,0.000,0.000,0.000,0.000,false,false,false,false,false,false,false,false,false,false,false,false,--.--,--.--,--.--,--.--,--.--,--.--,--.--,--.--,47.6196899,-122.3631744,10TET 47852 74228,1.0,1.0,0.0,3,10,--.--,--.--,,--.--,--.--,--.--,0,0,--.--,--.--,0,-13.0,34.0,2.3,0.4,-1.3,-0.1,--.--,--.--,--.--,--.--,--.--,--.--,--.--,--.--,--.--,--.--,--.--,--.--,103.46,56.53,--.--,0,0,0.2,0.3,0.2,0,0,0,--.--,--.--,--.--
2022-08-15 09:56:56.918,2.7,2.4,81,0.0,0.0,0.0,0.0,0.0,0.000,0.2,-0.9,1.4,-0.390,-0.380,0.000,27.3,00:00:56,22.8,0,--.--,359,--.--,46,0000:00:00,50,1,0,0,40,0,2,--.--,0,0,0,--.--,1.52,409,--.--,97,--.--,--:--:--,0,--.--,09:56:55,8/15/2022,--.--,--.--,--.--,--.--,--.--,--.--,--.--,--.--,--.--,--.--,--.--,--.--,0,0.000,0.000,0.000,0.000,0.000,0.000,0.000,0.000,0.000,0.000,0.000,0.000,false,false,false,false,false,false,false,false,false,false,false,false,--.--,--.--,--.--,--.--,--.--,--.--,--.--,--.--,47.6196899,-122.3631744,10TET 47852 74228,1.0,1.0,0.0,3,10,--.--,--.--,,--.--,--.--,--.--,0,0,--.--,--.--,0,-13.5,34.7,2.0,-0.3,-0.2,-0.2,--.--,--.--,--.--,--.--,--.--,--.--,--.--,--.--,--.--,--.--,--.--,--.--,103.48,56.53,--.--,0,0,0.1,0.2,0.1,0,0,0,--.--,--.--,--.--
2022-08-15 09:56:57.914,4.9,-8.9,69,0.0,0.0,0.0,0.0,0.0,0.000,0.2,-0.6,1.7,-0.290,-0.188,0.000,27.3,00:00:57,23.1,0,--.--,357,--.--,33,0000:00:00,50,1,0,0,40,0,2,--.--,0,0,0,--.--,4.20,410,--.--,97,--.--,--:--:--,0,--.--,09:56:56,8/15/2022,--.--,--.--,--.--,--.--,--.--,--.--,--.--,--.--,--.--,--.--,--.--,--.--,0,0.000,0.000,0.000,0.000,0.000,0.000,0.000,0.000,0.000,0.000,0.000,0.000,false,false,false,false,false,false,false,false,false,false,false,false,--.--,--.--,--.--,--.--,--.--,--.--,--.--,--.--,47.6196899,-122.3631744,10TET 47852 74228,1.0,1.0,0.0,3,10,--.--,--.--,,--.--,--.--,--.--,0,0,--.--,--.--,0,-13.8,35.4,1.9,-0.5,0.3,-0.1,--.--,--.--,--.--,--.--,--.--,--.--,--.--,--.--,--.--,--.--,--.--,--.--,103.50,56.53,--.--,0,0,0.2,0.2,0.1,0,0,0,--.--,--.--,--.--
2022-08-15 09:56:58.916,4.0,-2.1,68,0.0,0.0,0.0,0.0,0.0,0.000,-0.2,-1.0,1.2,-0.450,-0.469,0.000,27.3,00:00:58,22.9,0,--.--,355,--.--,56,0000:00:00,50,1,0,0,40,0,2,--.--,0,0,0,--.--,3.42,411,--.--,97,--.--,--:--:--,0,--.--,09:56:57,8/15/2022,--.--,--.--,--.--,--.--,--.--,--.--,--.--,--.--,--.--,--.--,--.--,--.--,0,0.000,0.000,0.000,0.000,0.000,0.000,0.000,0.000,0.000,0.000,0.000,0.000,false,false,false,false,false,false,false,false,false,false,false,false,--.--,--.--,--.--,--.--,--.--,--.--,--.--,--.--,47.6196937,-122.3631744,10TET 47852 74228,1.0,1.0,0.0,3,10,--.--,--.--,,--.--,--.--,--.--,0,0,--.--,--.--,0,-13.6,36.1,2.4,-0.4,0.9,0.2,--.--,--.--,--.--,--.--,--.--,--.--,--.--,--.--,--.--,--.--,--.--,--.--,103.50,56.55,--.--,0,0,0.2,0.3,0.3,0,0,0,--.--,--.--,--.--
2022-08-15 09:56:59.918,-7.5,4.8,52,0.0,0.0,0.0,0.0,0.0,0.000,0.1,-1.3,0.9,-0.540,-0.696,0.000,27.3,00:00:59,22.2,0,--.--,355,--.--,66,0000:00:00,50,1,0,0,40,0,2,--.--,0,0,0,--.--,8.91,413,--.--,97,--.--,--:--:--,0,--.--,09:56:58,8/15/2022,--.--,--.--,--.--,--.--,--.--,--.--,--.--,--.--,--.--,--.--,--.--,--.--,0,0.000,0.000,0.000,0.000,0.000,0.000,0.000,0.000,0.000,0.000,0.000,0.000,false,false,false,false,false,false,false,false,false,false,false,false,--.--,--.--,--.--,--.--,--.--,--.--,--.--,--.--,47.6196937,-122.3631820,10TET 47851 74228,1.0,1.0,0.0,3,10,--.--,--.--,,--.--,--.--,--.--,0,0,--.--,--.--,0,-12.9,36.2,2.5,-0.0,1.1,-0.1,--.--,--.--,--.--,--.--,--.--,--.--,--.--,--.--,--.--,--.--,--.--,--.--,103.51,56.55,--.--,0,0,1.0,1.4,0.8,0,0,0,--.--,--.--,--.--
2022-08-15 09:57:00.916,0.0,3.3,52,0.0,0.0,0.0,0.0,0.0,0.000,0.2,-0.8,1.4,-0.380,-0.386,0.000,27.3,00:01:00,21.8,0,--.--,354,--.--,46,0000:00:00,50,1,0,0,40,0,2,--.--,0,0,0,--.--,1.39,413,--.--,97,--.--,--:--:--,0,--.--,09:56:59,8/15/2022,--.--,--.--,--.--,--.--,--.--,--.--,--.--,--.--,--.--,--.--,--.--,--.--,0,0.000,0.000,0.000,0.000,0.000,0.000,0.000,0.000,0.000,0.000,0.000,0.000,false,false,false,false,false,false,false,false,false,false,false,false,--.--,--.--,--.--,--.--,--.--,--.--,--.--,--.--,47.6196937,-122.3631744,10TET 47852 74228,1.0,1.0,0.0,3,10,--.--,--.--,,--.--,--.--,--.--,0,0,--.--,--.--,0,-12.4,36.6,2.0,-0.0,1.4,-0.2,--.--,--.--,--.--,--.--,--.--,--.--,--.--,--.--,--.--,--.--,--.--,--.--,103.53,56.55,--.--,0,0,0.3,0.3,0.2,0,0,0,--.--,--.--,--.--
2022-08-15 09:57:01.916,4.6,-7.1,54,0.0,0.0,0.0,0.0,0.0,0.000,0.1,-0.5,1.8,-0.270,-0.157,0.000,27.3,00:01:01,21.6,0,--.--,352,--.--,32,0000:00:00,50,1,0,0,40,0,2,--.--,0,0,0,--.--,4.67,414,--.--,97,--.--,--:--:--,0,--.--,09:57:00,8/15/2022,--.--,--.--,--.--,--.--,--.--,--.--,--.--,--.--,--.--,--.--,--.--,--.--,0,0.000,0.000,0.000,0.000,0.000,0.000,0.000,0.000,0.000,0.000,0.000,0.000,false,false,false,false,false,false,false,false,false,false,false,false,--.--,--.--,--.--,--.--,--.--,--.--,--.--,--.--,47.6196975,-122.3631744,10TET 47852 74229,1.0,1.0,0.0,3,10,--.--,--.--,,--.--,--.--,--.--,0,0,--.--,--.--,0,-12.1,37.2,1.9,0.1,1.5,-0.1,--.--,--.--,--.--,--.--,--.--,--.--,--.--,--.--,--.--,--.--,--.--,--.--,103.55,56.53,--.--,0,0,0.2,0.2,0.1,0,0,0,--.--,--.--,--.--
2022-08-15 09:57:02.915,1.9,-2.3,55,0.0,0.0,0.0,0.0,0.0,0.000,-0.1,-0.8,1.4,-0.390,-0.353,0.000,27.3,00:01:02,21.2,0,--.--,352,--.--,47,0000:00:00,50,1,0,0,40,0,2,--.--,0,0,0,--.--,0.90,415,--.--,97,--.--,--:--:--,0,--.--,09:57:01,8/15/2022,--.--,--.--,--.--,--.--,--.--,--.--,--.--,--.--,--.--,--.--,--.--,--.--,0,0.000,0.000,0.000,0.000,0.000,0.000,0.000,0.000,0.000,0.000,0.000,0.000,false,false,false,false,false,false,false,false,false,false,false,false,--.--,--.--,--.--,--.--,--.--,--.--,--.--,--.--,47.6196937,-122.3631744,10TET 47852 74228,1.0,1.0,0.0,3,10,--.--,--.--,,--.--,--.--,--.--,0,0,--.--,--.--,0,-11.8,37.3,2.4,0.1,1.0,0.1,--.--,--.--,--.--,--.--,--.--,--.--,--.--,--.--,--.--,--.--,--.--,--.--,103.55,56.55,--.--,0,0,0.1,0.1,0.0,0,0,0,--.--,--.--,--.--
2022-08-15 09:57:03.916,-3.5,4.0,54,0.0,0.0,0.0,0.0,0.0,0.000,-0.0,-1.2,1.0,-0.500,-0.604,0.000,27.3,00:01:03,21.3,0,--.--,352,--.--,61,0000:00:00,50,1,0,0,40,0,2,--.--,0,0,0,--.--,2.08,415,--.--,97,--.--,--:--:--,0,--.--,09:57:02,8/15/2022,--.--,--.--,--.--,--.--,--.--,--.--,--.--,--.--,--.--,--.--,--.--,--.--,0,0.000,0.000,0.000,0.000,0.000,0.000,0.000,0.000,0.000,0.000,0.000,0.000,false,false,false,false,false,false,false,false,false,false,false,false,--.--,--.--,--.--,--.--,--.--,--.--,--.--,--.--,47.6196937,-122.3631744,10TET 47852 74228,1.0,1.0,0.0,3,10,--.--,--.--,,--.--,--.--,--.--,0,0,--.--,--.--,0,-11.9,37.4,2.5,0.2,1.0,0.0,--.--,--.--,--.--,--.--,--.--,--.--,--.--,--.--,--.--,--.--,--.--,--.--,103.59,56.53,--.--,0,0,0.1,0.1,0.1,0,0,0,--.--,--.--,--.--
2022-08-15 09:57:04.941,-5.4,3.5,53,0.0,0.0,0.0,0.0,0.0,0.000,0.1,-1.2,1.0,-0.480,-0.566,0.000,27.3,00:01:04,21.1,0,--.--,353,--.--,60,0000:00:00,50,1,0,0,40,0,2,--.--,0,0,0,--.--,5.18,416,--.--,97,--.--,--:--:--,0,--.--,09:57:03,8/15/2022,--.--,--.--,--.--,--.--,--.--,--.--,--.--,--.--,--.--,--.--,--.--,--.--,0,0.000,0.000,0.000,0.000,0.000,0.000,0.000,0.000,0.000,0.000,0.000,0.000,false,false,false,false,false,false,false,false,false,false,false,false,--.--,--.--,--.--,--.--,--.--,--.--,--.--,--.--,47.6196937,-122.3631744,10TET 47852 74228,1.0,1.0,0.0,3,10,--.--,--.--,,--.--,--.--,--.--,0,0,--.--,--.--,0,-11.7,36.8,2.4,0.3,0.6,-0.1,--.--,--.--,--.--,--.--,--.--,--.--,--.--,--.--,--.--,--.--,--.--,--.--,103.59,56.53,--.--,0,0,0.1,0.2,0.1,0,0,0,--.--,--.--,--.--
2022-08-15 09:57:05.921,4.3,-4.4,54,0.0,0.0,0.0,0.0,0.0,0.000,0.1,-0.5,1.7,-0.280,-0.170,0.000,27.3,00:01:05,21.2,0,--.--,353,--.--,34,0000:00:00,50,1,0,0,40,0,2,--.--,0,0,0,--.--,6.92,417,--.--,97,--.--,--:--:--,0,--.--,09:57:04,8/15/2022,--.--,--.--,--.--,--.--,--.--,--.--,--.--,--.--,--.--,--.--,--.--,--.--,0,0.000,0.000,0.000,0.000,0.000,0.000,0.000,0.000,0.000,0.000,0.000,0.000,false,false,false,false,false,false,false,false,false,false,false,false,--.--,--.--,--.--,--.--,--.--,--.--,--.--,--.--,47.6196937,-122.3631744,10TET 47852 74228,1.0,1.0,0.0,3,10,--.--,--.--,,--.--,--.--,--.--,0,0,--.--,--.--,0,-11.8,36.7,1.9,-0.0,0.6,-0.1,--.--,--.--,--.--,--.--,--.--,--.--,--.--,--.--,--.--,--.--,--.--,--.--,103.60,56.53,--.--,0,0,0.2,0.2,0.1,0,0,0,--.--,--.--,--.--
2022-08-15 09:57:06.913,3.2,-4.0,54,0.0,0.0,0.0,0.0,0.0,0.000,-0.1,-0.8,1.5,-0.350,-0.315,0.000,27.3,00:01:06,20.9,0,--.--,354,--.--,43,0000:00:00,50,1,0,0,40,0,2,--.--,0,0,0,--.--,3.95,418,--.--,97,--.--,--:--:--,0,--.--,09:57:05,8/15/2022,--.--,--.--,--.--,--.--,--.--,--.--,--.--,--.--,--.--,--.--,--.--,--.--,0,0.000,0.000,0.000,0.000,0.000,0.000,0.000,0.000,0.000,0.000,0.000,0.000,false,false,false,false,false,false,false,false,false,false,false,false,--.--,--.--,--.--,--.--,--.--,--.--,--.--,--.--,47.6196975,-122.3631744,10TET 47852 74229,1.0,1.0,0.0,3,10,--.--,--.--,,--.--,--.--,--.--,0,0,--.--,--.--,0,-11.5,36.5,2.2,0.2,0.3,0.1,--.--,--.--,--.--,--.--,--.--,--.--,--.--,--.--,--.--,--.--,--.--,--.--,103.62,56.53,--.--,0,0,0.5,0.6,0.4,0,0,0,--.--,--.--,--.--
2022-08-15 09:57:07.925,-4.4,4.8,52,0.0,0.0,0.0,0.0,0.0,0.000,-0.1,-1.3,1.0,-0.510,-0.634,0.000,27.3,00:01:07,20.3,0,--.--,354,--.--,64,0000:00:00,50,1,0,0,40,0,2,--.--,0,0,0,--.--,2.79,419,--.--,97,--.--,--:--:--,0,--.--,09:57:06,8/15/2022,--.--,--.--,--.--,--.--,--.--,--.--,--.--,--.--,--.--,--.--,--.--,--.--,0,0.000,0.000,0.000,0.000,0.000,0.000,0.000,0.000,0.000,0.000,0.000,0.000,false,false,false,false,false,false,false,false,false,false,false,false,--.--,--.--,--.--,--.--,--.--,--.--,--.--,--.--,47.6196975,-122.3631744,10TET 47852 74229,1.0,1.0,0.0,3,10,--.--,--.--,,--.--,--.--,--.--,0,0,--.--,--.--,0,-11.0,36.3,2.6,0.3,0.1,0.0,--.--,--.--,--.--,--.--,--.--,--.--,--.--,--.--,--.--,--.--,--.--,--.--,103.64,56.52,--.--,0,0,0.1,0.2,0.1,0,0,0,--.--,--.--,--.--
2022-08-15 09:57:08.912,-4.2,3.7,52,0.0,0.0,0.0,0.0,0.0,0.000,0.2,-1.1,1.2,-0.450,-0.501,0.000,27.3,00:01:08,19.6,0,--.--,353,--.--,54,0000:00:00,50,1,0,0,40,0,2,--.--,0,0,0,--.--,1.01,419,--.--,97,--.--,--:--:--,0,--.--,09:57:07,8/15/2022,--.--,--.--,--.--,--.--,--.--,--.--,--.--,--.--,--.--,--.--,--.--,--.--,0,0.000,0.000,0.000,0.000,0.000,0.000,0.000,0.000,0.000,0.000,0.000,0.000,false,false,false,false,false,false,false,false,false,false,false,false,--.--,--.--,--.--,--.--,--.--,--.--,--.--,--.--,47.6197013,-122.3631668,10TET 47852 74229,1.0,1.0,0.0,3,10,--.--,--.--,,--.--,--.--,--.--,0,0,--.--,--.--,0,-10.3,36.7,2.2,0.4,0.2,-0.2,--.--,--.--,--.--,--.--,--.--,--.--,--.--,--.--,--.--,--.--,--.--,--.--,103.64,56.53,--.--,0,0,0.1,0.1,0.1,0,0,0,--.--,--.--,--.--
2022-08-15 09:57:09.914,2.9,-1.0,53,0.0,0.0,0.0,0.0,0.0,0.000,0.1,-0.7,1.5,-0.340,-0.284,0.000,27.3,00:01:09,19.1,0,--.--,351,--.--,41,0000:00:00,50,1,0,0,40,0,2,--.--,0,0,0,--.--,1.77,420,--.--,97,--.--,--:--:--,0,--.--,09:57:08,8/15/2022,--.--,--.--,--.--,--.--,--.--,--.--,--.--,--.--,--.--,--.--,--.--,--.--,0,0.000,0.000,0.000,0.000,0.000,0.000,0.000,0.000,0.000,0.000,0.000,0.000,false,false,false,false,false,false,false,false,false,false,false,false,--.--,--.--,--.--,--.--,--.--,--.--,--.--,--.--,47.6197013,-122.3631668,10TET 47852 74229,1.0,1.0,0.0,3,10,--.--,--.--,,--.--,--.--,--.--,0,0,--.--,--.--,0,-9.6,37.4,2.0,0.4,0.3,-0.1,--.--,--.--,--.--,--.--,--.--,--.--,--.--,--.--,--.--,--.--,--.--,--.--,103.66,56.52,--.--,0,0,0.1,0.1,0.1,0,0,0,--.--,--.--,--.--
2022-08-15 09:57:10.926,1.7,-2.9,53,0.0,0.0,0.0,0.0,0.0,0.000,0.0,-0.7,1.5,-0.340,-0.282,0.000,27.3,00:01:10,18.9,0,--.--,350,--.--,40,0000:00:00,50,1,0,0,40,0,2,--.--,0,0,0,--.--,2.13,420,--.--,97,--.--,--:--:--,0,--.--,09:57:09,8/15/2022,--.--,--.--,--.--,--.--,--.--,--.--,--.--,--.--,--.--,--.--,--.--,--.--,0,0.000,0.000,0.000,0.000,0.000,0.000,0.000,0.000,0.000,0.000,0.000,0.000,false,false,false,false,false,false,false,false,false,false,false,false,--.--,--.--,--.--,--.--,--.--,--.--,--.--,--.--,47.6197013,-122.3631668,10TET 47852 74229,1.0,1.0,0.0,3,10,--.--,--.--,,--.--,--.--,--.--,0,0,--.--,--.--,0,-9.3,37.6,2.1,0.3,0.1,-0.1,--.--,--.--,--.--,--.--,--.--,--.--,--.--,--.--,--.--,--.--,--.--,--.--,103.68,56.52,--.--,0,0,0.1,0.1,0.1,0,0,0,--.--,--.--,--.--
2022-08-15 09:57:11.915,0.3,0.1,52,0.0,0.0,0.0,0.0,0.0,0.000,-0.1,-0.9,1.3,-0.400,-0.398,0.000,27.3,00:01:11,18.7,0,--.--,349,--.--,51,0000:00:00,50,1,0,0,40,0,2,--.--,0,0,0,--.--,0.75,421,--.--,97,--.--,--:--:--,0,--.--,09:57:10,8/15/2022,--.--,--.--,--.--,--.--,--.--,--.--,--.--,--.--,--.--,--.--,--.--,--.--,0,0.000,0.000,0.000,0.000,0.000,0.000,0.000,0.000,0.000,0.000,0.000,0.000,false,false,false,false,false,false,false,false,false,false,false,false,--.--,--.--,--.--,--.--,--.--,--.--,--.--,--.--,47.6197013,-122.3631668,10TET 47852 74229,1.0,1.0,0.0,3,10,--.--,--.--,,--.--,--.--,--.--,0,0,--.--,--.--,0,-9.1,37.8,2.3,0.4,0.1,0.1,--.--,--.--,--.--,--.--,--.--,--.--,--.--,--.--,--.--,--.--,--.--,--.--,103.69,56.50,--.--,0,0,0.1,0.1,0.0,0,0,0,--.--,--.--,--.--
2022-08-15 09:57:12.916,-4.5,3.3,50,0.0,0.0,0.0,0.0,0.0,0.000,0.2,-1.1,1.1,-0.450,-0.543,0.000,27.3,00:01:12,18.5,0,--.--,349,--.--,52,0000:00:00,50,1,0,0,40,0,2,--.--,0,0,0,--.--,1.19,421,--.--,97,--.--,--:--:--,0,--.--,09:57:11,8/15/2022,--.--,--.--,--.--,--.--,--.--,--.--,--.--,--.--,--.--,--.--,--.--,--.--,0,0.000,0.000,0.000,0.000,0.000,0.000,0.000,0.000,0.000,0.000,0.000,0.000,false,false,false,false,false,false,false,false,false,false,false,false,--.--,--.--,--.--,--.--,--.--,--.--,--.--,--.--,47.6197013,-122.3631668,10TET 47852 74229,1.0,1.0,0.0,3,10,--.--,--.--,,--.--,--.--,--.--,0,0,--.--,--.--,0,-9.0,37.7,2.4,0.2,-0.0,-0.2,--.--,--.--,--.--,--.--,--.--,--.--,--.--,--.--,--.--,--.--,--.--,--.--,103.71,56.52,--.--,0,0,0.0,0.1,0.1,0,0,0,--.--,--.--,--.--
